[{
  "_id": {
    "$oid": "6594be5ba930787fdc631675"
  },
  "Unnamed: 1": 5,
  "Person Name": "Louella Renee Addison",
  "Missing Since": "09/13/2019",
  "Missing From": " Austin, Texas",
  "Classification": "Endangered Missing",
  "Sex": "Female",
  "Race": "Black",
  "Date of Birth": "08/09/1966 (57)",
  "Missing Age": 53,
  "Height": "5'0",
  "Weight": "120 - 150 pounds",
  "Latitude": 30.2711286,
  "Longitude": -97.7436995
},
{
  "_id": {
    "$oid": "6594be5ba930787fdc631676"
  },
  "Unnamed: 1": 4,
  "Person Name": "Michael Jefferson Adams",
  "Missing Since": "06/08/1987",
  "Missing From": " Abilene, Texas",
  "Classification": "Endangered Missing",
  "Sex": "Male",
  "Race": "White",
  "Date of Birth": "03/28/1969 (54)",
  "Missing Age": 18,
  "Height": "6'0 - 6'1",
  "Weight": "145 - 150 pounds",
  "Latitude": 32.44645,
  "Longitude": -99.7475905
},
{
  "_id": {
    "$oid": "6594be5ba930787fdc631677"
  },
  "Unnamed: 1": 3,
  "Person Name": "Debra Marie Adams",
  "Missing Since": "03/01/1989",
  "Missing From": " Abilene, Texas",
  "Classification": "Missing",
  "Sex": "Female",
  "Race": "White",
  "Date of Birth": "11/14/1967 (56)",
  "Missing Age": 22,
  "Height": "5'5",
  "Weight": "110 pounds",
  "Latitude": 32.44645,
  "Longitude": -99.7475905
},
{
  "_id": {
    "$oid": "6594be5ba930787fdc631678"
  },
  "Unnamed: 1": 2,
  "Person Name": "Brent Marshall Acomb",
  "Missing Since": "01/24/2014",
  "Missing From": " Houston, Texas",
  "Classification": "Endangered Missing",
  "Sex": "Male",
  "Race": "White",
  "Date of Birth": "12/15/1959 (64)",
  "Missing Age": 54,
  "Height": "5'10 - 6'0",
  "Weight": "165 pounds",
  "Latitude": 29.7589382,
  "Longitude": -95.3676974
},
{
  "_id": {
    "$oid": "6594be5ba930787fdc631679"
  },
  "Unnamed: 1": 0,
  "Person Name": "Angela Abbrederis",
  "Missing Since": "04/02/1996",
  "Missing From": " Dallas, Texas",
  "Classification": "Endangered Missing",
  "Sex": "Female",
  "Race": " Asian, Biracial, White",
  "Date of Birth": "10/25/1968 (55)",
  "Missing Age": 27,
  "Height": "5'7 - 5'9",
  "Weight": "115 - 130 pounds",
  "Latitude": 32.7762719,
  "Longitude": -96.7968559
},
{
  "_id": {
    "$oid": "6594be5ba930787fdc63167a"
  },
  "Unnamed: 1": 7,
  "Person Name": "Nora Aguayo-Flores",
  "Missing Since": "05/26/2012",
  "Missing From": " Pasadena, Texas",
  "Classification": "Missing",
  "Sex": "Female",
  "Race": " Biracial, Black, Hispanic",
  "Date of Birth": "08/13/1983 (40)",
  "Missing Age": 28,
  "Height": "5'1",
  "Weight": "150 pounds",
  "Latitude": 29.6910753,
  "Longitude": -95.2092076
},
{
  "_id": {
    "$oid": "6594be5ba930787fdc63167b"
  },
  "Unnamed: 1": 8,
  "Person Name": "Wilver Eveli Aguilar",
  "Missing Since": "05/29/2015",
  "Missing From": " Riviera, Texas",
  "Classification": "Migrant",
  "Sex": "Male",
  "Race": "Hispanic",
  "Date of Birth": "04/17/1993 (30)",
  "Missing Age": 22,
  "Height": "5'4",
  "Weight": "140 pounds",
  "Latitude": 27.2987386,
  "Longitude": -97.8143004
},
{
  "_id": {
    "$oid": "6594be5ba930787fdc63167c"
  },
  "Unnamed: 1": 1,
  "Person Name": "Guadalupe Acevedo",
  "Missing Since": "12/08/2004",
  "Missing From": " Grand Prairie, Texas",
  "Classification": "Missing",
  "Sex": "Male",
  "Race": "Hispanic",
  "Date of Birth": "12/13/1953 (70)",
  "Missing Age": 50,
  "Height": "5'8",
  "Weight": "150 pounds",
  "Latitude": 32.7459645,
  "Longitude": -96.9977846
},
{
  "_id": {
    "$oid": "6594be5ba930787fdc63167d"
  },
  "Unnamed: 1": 10,
  "Person Name": "Melissa Alaniz",
  "Missing Since": "03/07/1987",
  "Missing From": " El Paso, Texas",
  "Classification": "Endangered Missing",
  "Sex": "Female",
  "Race": "Hispanic",
  "Date of Birth": "03/17/1974 (49)",
  "Missing Age": 12,
  "Height": "5'2",
  "Weight": "105 pounds",
  "Latitude": 31.7550511,
  "Longitude": -106.488234
},
{
  "_id": {
    "$oid": "6594be5ba930787fdc63167e"
  },
  "Unnamed: 1": 13,
  "Person Name": "Alex Adrian Aleman",
  "Missing Since": "07/27/2005",
  "Missing From": " Dallas, Texas",
  "Classification": "Endangered Missing",
  "Sex": "Male",
  "Race": "Hispanic",
  "Date of Birth": "02/28/1981 (42)",
  "Missing Age": 24,
  "Height": "5'8 - 5'9",
  "Weight": "175 - 185 pounds",
  "Latitude": 32.7762719,
  "Longitude": -96.7968559
},
{
  "_id": {
    "$oid": "6594be5ba930787fdc63167f"
  },
  "Unnamed: 1": 11,
  "Person Name": "Alwin Albright",
  "Missing Since": "07/06/2019",
  "Missing From": " Gilmer, Texas",
  "Classification": "Endangered Missing",
  "Sex": "Male",
  "Race": "White",
  "Date of Birth": "01/08/1945 (78)",
  "Missing Age": 74,
  "Height": "5'10",
  "Weight": "250 pounds",
  "Latitude": 32.7312256,
  "Longitude": -94.9469309
},
{
  "_id": {
    "$oid": "6594be5ba930787fdc631680"
  },
  "Unnamed: 1": 14,
  "Person Name": "Danielle Nicole Alexander",
  "Missing Since": "10/25/2005",
  "Missing From": " Wortham, Texas",
  "Classification": "Endangered Missing",
  "Sex": "Female",
  "Race": "Black",
  "Date of Birth": "11/04/1985 (38)",
  "Missing Age": 19,
  "Height": "5'1 - 5'2",
  "Weight": "250 pounds",
  "Latitude": 31.7879419,
  "Longitude": -96.4624814
},
{
  "_id": {
    "$oid": "6594be5ba930787fdc631681"
  },
  "Unnamed: 1": 15,
  "Person Name": "Brynisha Nichelle Allen",
  "Missing Since": "08/12/2016",
  "Missing From": " Dallas, Texas",
  "Classification": "Endangered Missing",
  "Sex": "Female",
  "Race": "Black",
  "Date of Birth": "06/19/1992 (31)",
  "Missing Age": 24,
  "Height": "5'0 - 5'5",
  "Weight": "125 - 135 pounds",
  "Latitude": 32.7762719,
  "Longitude": -96.7968559
},
{
  "_id": {
    "$oid": "6594be5ba930787fdc631682"
  },
  "Unnamed: 1": 20,
  "Person Name": "Khaled Mohammad Alsaaideh",
  "Missing Since": "06/07/2017",
  "Missing From": " Houston, Texas",
  "Classification": "Missing",
  "Sex": "Male",
  "Race": "Asian",
  "Date of Birth": "08/28/1970 (53)",
  "Missing Age": 46,
  "Height": "5'6",
  "Weight": "160 pounds",
  "Latitude": 29.7589382,
  "Longitude": -95.3676974
},
{
  "_id": {
    "$oid": "6594be5ba930787fdc631683"
  },
  "Unnamed: 1": 16,
  "Person Name": "Elizabeth Ann Allen",
  "Missing Since": "01/20/1980",
  "Missing From": " El Paso, Texas",
  "Classification": "Endangered Missing",
  "Sex": "Female",
  "Race": "White",
  "Date of Birth": "10/13/1924 (99)",
  "Missing Age": 55,
  "Height": "5'3 - 5'4",
  "Weight": "105 - 125 pounds",
  "Latitude": 31.7550511,
  "Longitude": -106.488234
},
{
  "_id": {
    "$oid": "6594be5ba930787fdc631684"
  },
  "Unnamed: 1": 18,
  "Person Name": "Iman Hisham Abass A. Almetnawy",
  "Missing Since": "08/25/1999",
  "Missing From": " Euless, Texas",
  "Classification": "Family Abduction",
  "Sex": "Female",
  "Race": "White",
  "Date of Birth": "12/09/1997 (26)",
  "Missing Age": 1,
  "Height": "1'6",
  "Weight": "28 pounds",
  "Latitude": 32.8370727,
  "Longitude": -97.0819541
},
{
  "_id": {
    "$oid": "6594be5ba930787fdc631685"
  },
  "Unnamed: 1": 21,
  "Person Name": "Eric Thomas Alvarado",
  "Missing Since": "11/20/2018",
  "Missing From": " Atlanta, Texas",
  "Classification": "Missing",
  "Sex": "Male",
  "Race": "Hispanic",
  "Date of Birth": "06/06/1986 (37)",
  "Missing Age": 32,
  "Height": "6'5 - 6'7",
  "Weight": "280 -300 pounds",
  "Latitude": 33.1162131,
  "Longitude": -94.1663493
},
{
  "_id": {
    "$oid": "6594be5ba930787fdc631686"
  },
  "Unnamed: 1": 23,
  "Person Name": "Forest Lavelle Anderson",
  "Missing Since": "07/12/2020",
  "Missing From": " Bethany, Texas",
  "Classification": "Endangered Missing",
  "Sex": "Male",
  "Race": "Black",
  "Date of Birth": "02/27/1949 (74)",
  "Missing Age": 71,
  "Height": "6'0",
  "Weight": "150 pounds",
  "Latitude": 32.3732122,
  "Longitude": -94.0432419
},
{
  "_id": {
    "$oid": "6594be5ba930787fdc631687"
  },
  "Unnamed: 1": 25,
  "Person Name": "Rosan J. Angulo",
  "Missing Since": "06/01/2017",
  "Missing From": " Houston, Texas",
  "Classification": "Missing",
  "Sex": "Female",
  "Race": "Asian",
  "Date of Birth": "11/23/1961 (62)",
  "Missing Age": 55,
  "Height": "5'1",
  "Weight": "124 pounds",
  "Latitude": 29.7589382,
  "Longitude": -95.3676974
},
{
  "_id": {
    "$oid": "6594be5ba930787fdc631688"
  },
  "Unnamed: 1": 26,
  "Person Name": "Maria Aparicio",
  "Missing Since": "07/31/2017",
  "Missing From": " Houston, Texas",
  "Classification": "Missing",
  "Sex": "Female",
  "Race": "Hispanic",
  "Date of Birth": "07/02/1932 (91)",
  "Missing Age": 85,
  "Height": "5'3",
  "Weight": "120 pounds",
  "Latitude": 29.7589382,
  "Longitude": -95.3676974
},
{
  "_id": {
    "$oid": "6594be5ba930787fdc631689"
  },
  "Unnamed: 1": 28,
  "Person Name": "Jennifer Apreciado",
  "Missing Since": "10/26/2006",
  "Missing From": " San Antonio, Texas",
  "Classification": "Endangered Missing",
  "Sex": "Female",
  "Race": "Hispanic",
  "Date of Birth": "05/21/1988 (35)",
  "Missing Age": 18,
  "Height": "4'7 - 4'10",
  "Weight": "95 - 105 pounds",
  "Latitude": 29.4246002,
  "Longitude": -98.4951405
},
{
  "_id": {
    "$oid": "6594be5ba930787fdc63168a"
  },
  "Unnamed: 1": 19,
  "Person Name": "Yousef Almetnawy",
  "Missing Since": "08/25/1999",
  "Missing From": " Euless, Texas",
  "Classification": "Family Abduction",
  "Sex": "Male",
  "Race": "White",
  "Date of Birth": "05/08/1995 (28)",
  "Missing Age": 4,
  "Height": "3'0",
  "Weight": "38 pounds",
  "Latitude": 32.8370727,
  "Longitude": -97.0819541
},
{
  "_id": {
    "$oid": "6594be5ba930787fdc63168b"
  },
  "Unnamed: 1": 24,
  "Person Name": "Oliver Anderson",
  "Missing Since": "05/06/1993",
  "Missing From": " San Antonio, Texas",
  "Classification": "Endangered Missing",
  "Sex": "Male",
  "Race": "Black",
  "Date of Birth": "07/21/1954 (69)",
  "Missing Age": 38,
  "Height": "6'1 - 6'4",
  "Weight": "190 - 200 pounds",
  "Latitude": 29.4246002,
  "Longitude": -98.4951405
},
{
  "_id": {
    "$oid": "6594be5ba930787fdc63168c"
  },
  "Unnamed: 1": 31,
  "Person Name": "Robert Castillo Armijo",
  "Missing Since": "02/28/2009",
  "Missing From": " Grand Prairie, Texas",
  "Classification": "Missing",
  "Sex": "Male",
  "Race": "Hispanic",
  "Date of Birth": "09/06/1972 (51)",
  "Missing Age": 36,
  "Height": "5'9",
  "Weight": "200 pounds",
  "Latitude": 32.7459645,
  "Longitude": -96.9977846
},
{
  "_id": {
    "$oid": "6594be5ba930787fdc63168d"
  },
  "Unnamed: 1": 30,
  "Person Name": "David Arias",
  "Missing Since": "06/25/2019",
  "Missing From": " Fort Worth, Texas",
  "Classification": "Missing",
  "Sex": "Male",
  "Race": "Hispanic",
  "Date of Birth": "11/19/1976 (47)",
  "Missing Age": 44,
  "Height": "5'4",
  "Weight": "140 - 160 pounds",
  "Latitude": 32.753177,
  "Longitude": -97.3327459
},
{
  "_id": {
    "$oid": "6594be5ba930787fdc63168e"
  },
  "Unnamed: 1": 27,
  "Person Name": "Monica Lynn Appleton",
  "Missing Since": "10/13/1999",
  "Missing From": " Pampa, Texas",
  "Classification": "Endangered Missing",
  "Sex": "Female",
  "Race": "White",
  "Date of Birth": "05/21/1970 (53)",
  "Missing Age": 29,
  "Height": "5'5",
  "Weight": "100 - 111 pounds",
  "Latitude": 35.536297,
  "Longitude": -100.9601552
},
{
  "_id": {
    "$oid": "6594be5ba930787fdc63168f"
  },
  "Unnamed: 1": 35,
  "Person Name": "Kathy Joan Arredondo",
  "Missing Since": "02/11/2012",
  "Missing From": " Houston, Texas",
  "Classification": "Endangered Missing",
  "Sex": "Female",
  "Race": "White",
  "Date of Birth": "02/04/1975 (48)",
  "Missing Age": 37,
  "Height": "5'2 - 5'4",
  "Weight": "140 - 150 pounds",
  "Latitude": 29.7589382,
  "Longitude": -95.3676974
},
{
  "_id": {
    "$oid": "6594be5ba930787fdc631690"
  },
  "Unnamed: 1": 37,
  "Person Name": "Romaldo Astran",
  "Missing Since": "07/10/2003",
  "Missing From": " Dallas, Texas",
  "Classification": "Missing",
  "Sex": "Male",
  "Race": "Hispanic",
  "Date of Birth": "03/19/1966 (57)",
  "Missing Age": 37,
  "Height": "5'5",
  "Weight": "180 pounds",
  "Latitude": 32.7762719,
  "Longitude": -96.7968559
},
{
  "_id": {
    "$oid": "6594be5ba930787fdc631691"
  },
  "Unnamed: 1": 38,
  "Person Name": "Jesus Juarez Atilano",
  "Missing Since": "02/21/2011",
  "Missing From": " Dallas, Texas",
  "Classification": "Missing",
  "Sex": "Male",
  "Race": "Hispanic",
  "Date of Birth": "06/25/1965 (58)",
  "Missing Age": 45,
  "Height": "5'7",
  "Weight": "165 pounds",
  "Latitude": 32.7762719,
  "Longitude": -96.7968559
},
{
  "_id": {
    "$oid": "6594be5ba930787fdc631692"
  },
  "Unnamed: 1": 43,
  "Person Name": "Stephen Shawn Austin",
  "Missing Since": "08/19/1997",
  "Missing From": " El Paso, Texas",
  "Classification": "Endangered Missing",
  "Sex": "Male",
  "Race": "Black",
  "Date of Birth": "09/22/1979 (44)",
  "Missing Age": 17,
  "Height": "6'1",
  "Weight": "140 pounds",
  "Latitude": 31.7550511,
  "Longitude": -106.488234
},
{
  "_id": {
    "$oid": "6594be5ba930787fdc631693"
  },
  "Unnamed: 1": 36,
  "Person Name": "Tammy Kay Arthur",
  "Missing Since": "11/09/2018",
  "Missing From": " Corpus Christi, Texas",
  "Classification": "Endangered Missing",
  "Sex": "Female",
  "Race": "White",
  "Date of Birth": "12/18/1987 (36)",
  "Missing Age": 30,
  "Height": "4'11",
  "Weight": "90 pounds",
  "Latitude": 27.7635302,
  "Longitude": -97.4033191
},
{
  "_id": {
    "$oid": "6594be5ba930787fdc631694"
  },
  "Unnamed: 1": 42,
  "Person Name": "Marshall Francis Austin",
  "Missing Since": "01/26/2003",
  "Missing From": " Houston, Texas",
  "Classification": "Endangered Missing",
  "Sex": "Male",
  "Race": "Black",
  "Date of Birth": "01/16/1963 (60)",
  "Missing Age": 40,
  "Height": "6'2",
  "Weight": "185 pounds",
  "Latitude": 29.7589382,
  "Longitude": -95.3676974
},
{
  "_id": {
    "$oid": "6594be5ba930787fdc631695"
  },
  "Unnamed: 1": 40,
  "Person Name": "Charles Austin",
  "Missing Since": "07/23/1998",
  "Missing From": " Daingerfield, Texas",
  "Classification": "Endangered Missing",
  "Sex": "Male",
  "Race": "Black",
  "Date of Birth": "06/25/1939 (84)",
  "Missing Age": 59,
  "Height": "5'11",
  "Weight": "165 pounds",
  "Latitude": 33.0318031,
  "Longitude": -94.7219895
},
{
  "_id": {
    "$oid": "6594be5ba930787fdc631696"
  },
  "Unnamed: 1": 39,
  "Person Name": "Andrea Lynn Unger Augsburger",
  "Missing Since": "11/29/1999",
  "Missing From": " McAllen, Texas",
  "Classification": "Endangered Missing",
  "Sex": "Female",
  "Race": "White",
  "Date of Birth": "08/02/1980 (43)",
  "Missing Age": 19,
  "Height": "5'6 - 5'7",
  "Weight": "120 - 130 pounds",
  "Latitude": 26.204114,
  "Longitude": -98.2300605
},
{
  "_id": {
    "$oid": "6594be5ba930787fdc631697"
  },
  "Unnamed: 1": 46,
  "Person Name": "Laura Ayala",
  "Missing Since": "03/10/2002",
  "Missing From": " Houston, Texas",
  "Classification": "Non-Family Abduction",
  "Sex": "Female",
  "Race": "Hispanic",
  "Date of Birth": "10/29/1988 (35)",
  "Missing Age": 13,
  "Height": "4'0",
  "Weight": "90 pounds",
  "Latitude": 29.7589382,
  "Longitude": -95.3676974
},
{
  "_id": {
    "$oid": "6594be5ba930787fdc631698"
  },
  "Unnamed: 1": 41,
  "Person Name": "Heather Rae Austin",
  "Missing Since": "08/17/2015",
  "Missing From": " Round Rock, Texas",
  "Classification": "Missing",
  "Sex": "Female",
  "Race": "White",
  "Date of Birth": "10/26/1980 (43)",
  "Missing Age": 34,
  "Height": "5'3",
  "Weight": "155 pounds",
  "Latitude": 30.5085915,
  "Longitude": -97.6788056
},
{
  "_id": {
    "$oid": "6594be5ba930787fdc631699"
  },
  "Unnamed: 1": 47,
  "Person Name": "Mark Lindsey Bachelder",
  "Missing Since": "09/22/1974",
  "Missing From": " Bryan Beach, Texas",
  "Classification": "Lost/Injured Missing",
  "Sex": "Male",
  "Race": "White",
  "Date of Birth": "05/18/1957 (66)",
  "Missing Age": 17,
  "Height": "5'8",
  "Weight": "125 pounds",
  "Latitude": 28.8833061,
  "Longitude": -95.3785523
},
{
  "_id": {
    "$oid": "6594be5ba930787fdc63169a"
  },
  "Unnamed: 1": 51,
  "Person Name": "Larry Richard Baker Sr.",
  "Missing Since": "01/29/2010",
  "Missing From": " Cleveland, Texas",
  "Classification": "Endangered Missing",
  "Sex": "Male",
  "Race": "White",
  "Date of Birth": "12/31/1955 (67)",
  "Missing Age": 54,
  "Height": "5'11",
  "Weight": "150 - 175 pounds",
  "Latitude": 30.3414794,
  "Longitude": -95.0900115
},
{
  "_id": {
    "$oid": "6594be5ba930787fdc63169b"
  },
  "Unnamed: 1": 48,
  "Person Name": "Cynthia Martyna Bah-Traore",
  "Missing Since": "02/03/2021",
  "Missing From": " Grandview, Texas",
  "Classification": "Endangered Missing",
  "Sex": "Female",
  "Race": "Black",
  "Date of Birth": "07/04/1981 (42)",
  "Missing Age": 39,
  "Height": "5'6",
  "Weight": "160 pounds",
  "Latitude": 32.2666506,
  "Longitude": -97.1785429
},
{
  "_id": {
    "$oid": "6594be5ba930787fdc63169c"
  },
  "Unnamed: 1": 52,
  "Person Name": "Rose Ann Baker",
  "Missing Since": "05/15/1980",
  "Missing From": " Whitesboro, Texas",
  "Classification": "Endangered Missing",
  "Sex": "Female",
  "Race": "White",
  "Date of Birth": "03/22/1940 (83)",
  "Missing Age": 40,
  "Height": "5'5",
  "Weight": "140 pounds",
  "Latitude": 33.6564674,
  "Longitude": -96.9059847
},
{
  "_id": {
    "$oid": "6594be5ba930787fdc63169d"
  },
  "Unnamed: 1": 53,
  "Person Name": "Zoila Gamero Baldomero",
  "Missing Since": "02/12/1986",
  "Missing From": " Laredo, Texas",
  "Classification": "Endangered Missing",
  "Sex": "Female",
  "Race": "Hispanic",
  "Date of Birth": "05/28/1942 (81)",
  "Missing Age": 43,
  "Height": "5'6",
  "Weight": "115 pounds",
  "Latitude": 27.5030915,
  "Longitude": -99.5075644
},
{
  "_id": {
    "$oid": "6594be5ba930787fdc63169e"
  },
  "Unnamed: 1": 54,
  "Person Name": "Ava Grace Baldwin",
  "Missing Since": "09/17/2015",
  "Missing From": " San Antonio, Texas",
  "Classification": "Family Abduction",
  "Sex": "Female",
  "Race": "White",
  "Date of Birth": "04/16/2009 (14)",
  "Missing Age": 5,
  "Height": "4'0",
  "Weight": "60 pounds",
  "Latitude": 29.4246002,
  "Longitude": -98.4951405
},
{
  "_id": {
    "$oid": "6594be5ba930787fdc63169f"
  },
  "Unnamed: 1": 55,
  "Person Name": "Curlee Baldwin",
  "Missing Since": "07/30/2014",
  "Missing From": " Spring, Texas",
  "Classification": "Endangered Missing",
  "Sex": "Male",
  "Race": "Black",
  "Date of Birth": "07/26/1938 (85)",
  "Missing Age": 76,
  "Height": "5'6",
  "Weight": "135 pounds",
  "Latitude": 30.0798826,
  "Longitude": -95.4172549
},
{
  "_id": {
    "$oid": "6594be5ba930787fdc6316a0"
  },
  "Unnamed: 1": 56,
  "Person Name": "Stanislaw Balinski",
  "Missing Since": "04/03/1997",
  "Missing From": " Crosby, Texas",
  "Classification": "Endangered Missing",
  "Sex": "Male",
  "Race": "White",
  "Date of Birth": "05/02/1921 (102)",
  "Missing Age": 75,
  "Height": "5'5",
  "Weight": "120 pounds",
  "Latitude": 33.5778818,
  "Longitude": -101.2855737
},
{
  "_id": {
    "$oid": "6594be5ba930787fdc6316a1"
  },
  "Unnamed: 1": 57,
  "Person Name": "Bernandina Avanzado Bandian",
  "Missing Since": "12/08/2016",
  "Missing From": " The Woodlands, Texas",
  "Classification": "Missing",
  "Sex": "Female",
  "Race": "Asian",
  "Date of Birth": "05/20/1961 (62)",
  "Missing Age": 55,
  "Height": "5'3",
  "Weight": "137 pounds",
  "Latitude": 30.1734194,
  "Longitude": -95.504686
},
{
  "_id": {
    "$oid": "6594be5ba930787fdc6316a2"
  },
  "Unnamed: 1": 58,
  "Person Name": "Nicholas Patrick Barclay",
  "Missing Since": "06/13/1994",
  "Missing From": " San Antonio, Texas",
  "Classification": "Endangered Missing",
  "Sex": "Male",
  "Race": "White",
  "Date of Birth": "12/31/1980 (42)",
  "Missing Age": 13,
  "Height": "4'8",
  "Weight": "80 pounds",
  "Latitude": 29.4246002,
  "Longitude": -98.4951405
},
{
  "_id": {
    "$oid": "6594be5ba930787fdc6316a3"
  },
  "Unnamed: 1": 50,
  "Person Name": "Jolee Lynn Baker",
  "Missing Since": "08/06/1995",
  "Missing From": " Wichita Falls, Texas",
  "Classification": "Endangered Missing",
  "Sex": "Female",
  "Race": "White",
  "Date of Birth": "08/19/1969 (54)",
  "Missing Age": 25,
  "Height": "5'5",
  "Weight": "100 pounds",
  "Latitude": 33.9004572,
  "Longitude": -98.5020777
},
{
  "_id": {
    "$oid": "6594be5ba930787fdc6316a4"
  },
  "Unnamed: 1": 49,
  "Person Name": "Johnny Lee Baker",
  "Missing Since": "06/21/1994",
  "Missing From": " Borger, Texas",
  "Classification": "Endangered Missing",
  "Sex": "Male",
  "Race": "White",
  "Date of Birth": "10/18/1946 (77)",
  "Missing Age": 47,
  "Height": "5'11",
  "Weight": "200 pounds",
  "Latitude": 35.6689767,
  "Longitude": -101.3919481
},
{
  "_id": {
    "$oid": "6594be5ba930787fdc6316a5"
  },
  "Unnamed: 1": 61,
  "Person Name": "Teresa Lanette Barnett",
  "Missing Since": "08/07/1987",
  "Missing From": " Marshall, Texas",
  "Classification": "Endangered Missing",
  "Sex": "Female",
  "Race": "White",
  "Date of Birth": "10/28/1956 (67)",
  "Missing Age": 30,
  "Height": "5'2 - 5'5",
  "Weight": "105 - 115 pounds",
  "Latitude": 32.5447756,
  "Longitude": -94.3661004
},
{
  "_id": {
    "$oid": "6594be5ba930787fdc6316a6"
  },
  "Unnamed: 1": 62,
  "Person Name": "Maria Guadalupe Barrientos",
  "Missing Since": "06/06/1994",
  "Missing From": " Sugarland, Texas",
  "Classification": "Endangered Missing",
  "Sex": "Female",
  "Race": "Hispanic",
  "Date of Birth": "03/03/1951 (72)",
  "Missing Age": 43,
  "Height": "5'3",
  "Weight": "130 pounds",
  "Latitude": 29.4839706,
  "Longitude": -95.4055961
},
{
  "_id": {
    "$oid": "6594be5ba930787fdc6316a7"
  },
  "Unnamed: 1": 63,
  "Person Name": "Matthew Cameron Barrows",
  "Missing Since": "05/07/1999",
  "Missing From": " Austin, Texas",
  "Classification": "Endangered Missing",
  "Sex": "Male",
  "Race": "White",
  "Date of Birth": "09/04/1976 (47)",
  "Missing Age": 22,
  "Height": "6'2",
  "Weight": "150 pounds",
  "Latitude": 30.2711286,
  "Longitude": -97.7436995
},
{
  "_id": {
    "$oid": "6594be5ba930787fdc6316a8"
  },
  "Unnamed: 1": 64,
  "Person Name": "Victor James Barry Jr.",
  "Missing Since": "05/26/1999",
  "Missing From": " Sunrise Cove, Texas",
  "Classification": "Missing",
  "Sex": "Male",
  "Race": "White",
  "Date of Birth": "10/22/1942 (81)",
  "Missing Age": 56,
  "Height": "5'9",
  "Weight": "200 pounds",
  "Latitude": 33.2376601,
  "Longitude": -97.1265722
},
{
  "_id": {
    "$oid": "6594be5ba930787fdc6316a9"
  },
  "Unnamed: 1": 66,
  "Person Name": "William Nolan Bass",
  "Missing Since": "10/21/2000",
  "Missing From": " Bellmead, Texas",
  "Classification": "Endangered Missing",
  "Sex": "Male",
  "Race": "White",
  "Date of Birth": "10/27/1912 (111)",
  "Missing Age": 87,
  "Height": "6'3 - 6'4",
  "Weight": "160 pounds",
  "Latitude": 31.5940545,
  "Longitude": -97.1088903
},
{
  "_id": {
    "$oid": "6594be5ba930787fdc6316aa"
  },
  "Unnamed: 1": 67,
  "Person Name": "Tracey Suzette Battle",
  "Missing Since": "05/05/2016",
  "Missing From": " Houston, Texas",
  "Classification": "Missing",
  "Sex": "Female",
  "Race": "Black",
  "Date of Birth": "09/15/1966 (57)",
  "Missing Age": 49,
  "Height": "5'3",
  "Weight": "125 pounds",
  "Latitude": 29.7589382,
  "Longitude": -95.3676974
},
{
  "_id": {
    "$oid": "6594be5ba930787fdc6316ab"
  },
  "Unnamed: 1": 68,
  "Person Name": "Janice Kay Baze",
  "Missing Since": "07/20/1974",
  "Missing From": " El Paso, Texas",
  "Classification": "Missing",
  "Sex": "Female",
  "Race": "White",
  "Date of Birth": "09/17/1937 (86)",
  "Missing Age": 36,
  "Height": "5'9 - 5'11",
  "Weight": "280 - 320 pounds",
  "Latitude": 31.7550511,
  "Longitude": -106.488234
},
{
  "_id": {
    "$oid": "6594be5ba930787fdc6316ac"
  },
  "Unnamed: 1": 70,
  "Person Name": "Rebecca Jean Beard",
  "Missing Since": "03/01/1986",
  "Missing From": " Freeport, Texas",
  "Classification": "Endangered Missing",
  "Sex": "Female",
  "Race": "White",
  "Date of Birth": "02/15/1964 (59)",
  "Missing Age": 22,
  "Height": "5'5 - 5'6",
  "Weight": "120 pounds",
  "Latitude": 28.9541368,
  "Longitude": -95.3596617
},
{
  "_id": {
    "$oid": "6594be5ba930787fdc6316ad"
  },
  "Unnamed: 1": 71,
  "Person Name": "William O. Beard",
  "Missing Since": "07/02/1995",
  "Missing From": " Dallas, Texas",
  "Classification": "Endangered Missing",
  "Sex": "Male",
  "Race": "Black",
  "Date of Birth": "10/16/1925 (98)",
  "Missing Age": 69,
  "Height": "5'7",
  "Weight": "110 pounds",
  "Latitude": 32.7762719,
  "Longitude": -96.7968559
},
{
  "_id": {
    "$oid": "6594be5ba930787fdc6316ae"
  },
  "Unnamed: 1": 65,
  "Person Name": "Jennifer Joyce Barton",
  "Missing Since": "05/16/1976",
  "Missing From": " Austin, Texas",
  "Classification": "Endangered Missing",
  "Sex": "Female",
  "Race": "Black",
  "Date of Birth": "05/31/1955 (68)",
  "Missing Age": 20,
  "Height": "5'7",
  "Weight": "135 pounds",
  "Latitude": 30.2711286,
  "Longitude": -97.7436995
},
{
  "_id": {
    "$oid": "6594be5ba930787fdc6316af"
  },
  "Unnamed: 1": 69,
  "Person Name": "Sue Woodrum Bean",
  "Missing Since": "12/21/1985",
  "Missing From": " Silver Creek, Texas",
  "Classification": "Endangered Missing",
  "Sex": "Female",
  "Race": "White",
  "Date of Birth": "06/02/1936 (87)",
  "Missing Age": 49,
  "Height": "5'4 - 5'7",
  "Weight": "135 - 145 pounds",
  "Latitude": 29.5307187,
  "Longitude": -98.5793370175902
},
{
  "_id": {
    "$oid": "6594be5ba930787fdc6316b0"
  },
  "Unnamed: 1": 72,
  "Person Name": "Michael Keith Beaudoin",
  "Missing Since": "07/14/1992",
  "Missing From": " Conroe, Texas",
  "Classification": "Endangered Missing",
  "Sex": "Male",
  "Race": "White",
  "Date of Birth": "07/04/1961 (62)",
  "Missing Age": 31,
  "Height": "5'11",
  "Weight": "165 pounds",
  "Latitude": 30.3118769,
  "Longitude": -95.4560512
},
{
  "_id": {
    "$oid": "6594be5ba930787fdc6316b1"
  },
  "Unnamed: 1": 74,
  "Person Name": "Chester Lee Bell Jr.",
  "Missing Since": "05/04/2001",
  "Missing From": " Dallas, Texas",
  "Classification": "Endangered Missing",
  "Sex": "Male",
  "Race": "Black",
  "Date of Birth": "03/21/1942 (81)",
  "Missing Age": 59,
  "Height": "5'11",
  "Weight": "200 pounds",
  "Latitude": 32.7762719,
  "Longitude": -96.7968559
},
{
  "_id": {
    "$oid": "6594be5ba930787fdc6316b2"
  },
  "Unnamed: 1": 73,
  "Person Name": "Patricia Ann Becks",
  "Missing Since": "07/28/1994",
  "Missing From": " Waxahachie, Texas",
  "Classification": "Endangered Missing",
  "Sex": "Female",
  "Race": "Black",
  "Date of Birth": "08/06/1966 (57)",
  "Missing Age": 27,
  "Height": "5'6 - 5'8",
  "Weight": "120 - 130 pounds",
  "Latitude": 32.3944908,
  "Longitude": -96.8439365
},
{
  "_id": {
    "$oid": "6594be5ba930787fdc6316b3"
  },
  "Unnamed: 1": 75,
  "Person Name": "Leon Bell III",
  "Missing Since": "09/09/2002",
  "Missing From": " Dallas, Texas",
  "Classification": "Endangered Runaway",
  "Sex": "Male",
  "Race": "Black",
  "Date of Birth": "10/25/1986 (37)",
  "Missing Age": 15,
  "Height": "5'7",
  "Weight": "140 pounds",
  "Latitude": 32.7762719,
  "Longitude": -96.7968559
},
{
  "_id": {
    "$oid": "6594be5ba930787fdc6316b4"
  },
  "Unnamed: 1": 77,
  "Person Name": "Michael Benavides",
  "Missing Since": "01/06/1995",
  "Missing From": " San Antonio, Texas",
  "Classification": "Missing",
  "Sex": "Male",
  "Race": "Hispanic",
  "Date of Birth": "04/20/1972 (51)",
  "Missing Age": 22,
  "Height": "5'7",
  "Weight": "160 pounds",
  "Latitude": 29.4246002,
  "Longitude": -98.4951405
},
{
  "_id": {
    "$oid": "6594be5ba930787fdc6316b5"
  },
  "Unnamed: 1": 76,
  "Person Name": "Rosio Monica Beltran",
  "Missing Since": "09/09/2000",
  "Missing From": " North Richland Hills, Texas",
  "Classification": "Endangered Missing",
  "Sex": "Female",
  "Race": "Hispanic",
  "Date of Birth": "10/12/1973 (50)",
  "Missing Age": 26,
  "Height": "5'4",
  "Weight": "120 pounds",
  "Latitude": 32.8342952,
  "Longitude": -97.2289029
},
{
  "_id": {
    "$oid": "6594be5ba930787fdc6316b6"
  },
  "Unnamed: 1": 78,
  "Person Name": "Jennifer Joyce Bench",
  "Missing Since": "08/16/1995",
  "Missing From": " Boxelder, Texas",
  "Classification": "Endangered Missing",
  "Sex": "Female",
  "Race": "White",
  "Date of Birth": "08/23/1962 (61)",
  "Missing Age": 32,
  "Height": "5'5",
  "Weight": "90 pounds",
  "Latitude": 33.479834,
  "Longitude": -94.8818819
},
{
  "_id": {
    "$oid": "6594be5ba930787fdc6316b7"
  },
  "Unnamed: 1": 79,
  "Person Name": "Rudy Ramos Benitez",
  "Missing Since": "11/05/2008",
  "Missing From": " Weslaco, Texas",
  "Classification": "Missing",
  "Sex": "Male",
  "Race": "Hispanic",
  "Date of Birth": "12/15/1980 (43)",
  "Missing Age": 27,
  "Height": "5'3 - 5'6",
  "Weight": "120 - 150 pounds",
  "Latitude": 26.1594305,
  "Longitude": -97.9907362
},
{
  "_id": {
    "$oid": "6594be5ba930787fdc6316b8"
  },
  "Unnamed: 1": 80,
  "Person Name": "Janice Faye Benson",
  "Missing Since": "02/04/2000",
  "Missing From": " Fort Worth, Texas",
  "Classification": "Endangered Missing",
  "Sex": "Female",
  "Race": "Black",
  "Date of Birth": "06/07/1961 (62)",
  "Missing Age": 38,
  "Height": "5'5",
  "Weight": "134 pounds",
  "Latitude": 32.753177,
  "Longitude": -97.3327459
},
{
  "_id": {
    "$oid": "6594be5ba930787fdc6316b9"
  },
  "Unnamed: 1": 82,
  "Person Name": "Mila Micheal Bergschneider",
  "Missing Since": "06/15/2010",
  "Missing From": " Fort Worth, Texas",
  "Classification": "Missing",
  "Sex": "Female",
  "Race": "White",
  "Date of Birth": "04/23/1975 (48)",
  "Missing Age": 35,
  "Height": "5'6",
  "Weight": "130 pounds",
  "Latitude": 32.753177,
  "Longitude": -97.3327459
},
{
  "_id": {
    "$oid": "6594be5ba930787fdc6316ba"
  },
  "Unnamed: 1": 85,
  "Person Name": "Michael Robert Bidwell",
  "Missing Since": "08/27/1988",
  "Missing From": " Richmond, Texas",
  "Classification": "Endangered Missing",
  "Sex": "Male",
  "Race": "White",
  "Date of Birth": "01/08/1959 (64)",
  "Missing Age": 29,
  "Height": "5'8",
  "Weight": "165 pounds",
  "Latitude": 29.5821811,
  "Longitude": -95.7607832
},
{
  "_id": {
    "$oid": "6594be5ba930787fdc6316bb"
  },
  "Unnamed: 1": 86,
  "Person Name": "Robert Anthony Biela",
  "Missing Since": "09/04/1986",
  "Missing From": " Harlingen, Texas",
  "Classification": "Endangered Missing",
  "Sex": "Male",
  "Race": "White",
  "Date of Birth": "05/12/1950 (73)",
  "Missing Age": 36,
  "Height": "5'4",
  "Weight": "130 pounds",
  "Latitude": 26.1907543,
  "Longitude": -97.6960599
},
{
  "_id": {
    "$oid": "6594be5ba930787fdc6316bc"
  },
  "Unnamed: 1": 83,
  "Person Name": "Phyllis Eleanor Berry",
  "Missing Since": "11/01/1975",
  "Missing From": " Terlingua, Texas",
  "Classification": "Endangered Missing",
  "Sex": "Female",
  "Race": "White",
  "Date of Birth": "09/16/1954 (69)",
  "Missing Age": 21,
  "Height": "5'5",
  "Weight": "110 pounds",
  "Latitude": 29.321586,
  "Longitude": -103.616019
},
{
  "_id": {
    "$oid": "6594be5ba930787fdc6316bd"
  },
  "Unnamed: 1": 89,
  "Person Name": "Elizabeth Theresa Bishop",
  "Missing Since": "10/02/1981",
  "Missing From": " Abilene, Texas",
  "Classification": "Endangered Missing",
  "Sex": "Female",
  "Race": "White",
  "Date of Birth": "08/11/1961 (62)",
  "Missing Age": 20,
  "Height": "5'6 - 5'7",
  "Weight": "110 - 125 pounds",
  "Latitude": 32.44645,
  "Longitude": -99.7475905
},
{
  "_id": {
    "$oid": "6594be5ba930787fdc6316be"
  },
  "Unnamed: 1": 87,
  "Person Name": "Damon Paul Billiot",
  "Missing Since": "03/15/1996",
  "Missing From": " Tyler, Texas",
  "Classification": "Endangered Missing",
  "Sex": "Male",
  "Race": "White",
  "Date of Birth": "06/05/1964 (59)",
  "Missing Age": 31,
  "Height": "5'8",
  "Weight": "175 pounds",
  "Latitude": 30.7563939,
  "Longitude": -94.3984613
},
{
  "_id": {
    "$oid": "6594be5ba930787fdc6316bf"
  },
  "Unnamed: 1": 84,
  "Person Name": "Sherrye Lee Bethel",
  "Missing Since": "07/15/1976",
  "Missing From": " Fort Worth, Texas",
  "Classification": "Missing",
  "Sex": "Female",
  "Race": "White",
  "Date of Birth": "03/23/1955 (68)",
  "Missing Age": 21,
  "Height": "5'6",
  "Weight": "130 pounds",
  "Latitude": 32.753177,
  "Longitude": -97.3327459
},
{
  "_id": {
    "$oid": "6594be5ba930787fdc6316c0"
  },
  "Unnamed: 1": 88,
  "Person Name": "Emmanuel Kalief Birts",
  "Missing Since": "09/14/1989",
  "Missing From": " Dallas, Texas",
  "Classification": "Non-Family Abduction",
  "Sex": "Male",
  "Race": "Black",
  "Date of Birth": "08/04/1989 (34)",
  "Missing Age": 5,
  "Height": "2'0",
  "Weight": "10 pounds",
  "Latitude": 32.7762719,
  "Longitude": -96.7968559
},
{
  "_id": {
    "$oid": "6594be5ba930787fdc6316c1"
  },
  "Unnamed: 1": 90,
  "Person Name": "Thomas Stephen Blake",
  "Missing Since": "08/01/1987",
  "Missing From": " Big Spring, Texas",
  "Classification": "Endangered Missing",
  "Sex": "Male",
  "Race": "White",
  "Date of Birth": "07/24/1957 (66)",
  "Missing Age": 30,
  "Height": "6'3",
  "Weight": "165 pounds",
  "Latitude": 32.250398,
  "Longitude": -101.4787356
},
{
  "_id": {
    "$oid": "6594be5ba930787fdc6316c2"
  },
  "Unnamed: 1": 92,
  "Person Name": "Eitan Ariel Blasingame",
  "Missing Since": "02/28/2008",
  "Missing From": " Plano, Texas",
  "Classification": "Family Abduction",
  "Sex": "Male",
  "Race": "Asian",
  "Date of Birth": "10/22/2006 (17)",
  "Missing Age": 1,
  "Height": "2'6",
  "Weight": "35 pounds",
  "Latitude": 33.0136764,
  "Longitude": -96.6925096
},
{
  "_id": {
    "$oid": "6594be5ba930787fdc6316c3"
  },
  "Unnamed: 1": 95,
  "Person Name": "Tara Lea Blue",
  "Missing Since": "11/02/2001",
  "Missing From": " Center, Texas",
  "Classification": "Endangered Missing",
  "Sex": "Female",
  "Race": "White",
  "Date of Birth": "08/16/1971 (52)",
  "Missing Age": 30,
  "Height": "5'5 - 5'8",
  "Weight": "150 - 160 pounds",
  "Latitude": 31.7952814,
  "Longitude": -94.1803576
},
{
  "_id": {
    "$oid": "6594be5ba930787fdc6316c4"
  },
  "Unnamed: 1": 96,
  "Person Name": "Robert Wayne Bodmer",
  "Missing Since": "02/14/2020",
  "Missing From": " Beaumont, Texas",
  "Classification": "Missing",
  "Sex": "Male",
  "Race": "White",
  "Date of Birth": "05/04/1981 (42)",
  "Missing Age": 39,
  "Height": "5'8",
  "Weight": "165 pounds",
  "Latitude": 30.0860459,
  "Longitude": -94.1018461
},
{
  "_id": {
    "$oid": "6594be5ba930787fdc6316c5"
  },
  "Unnamed: 1": 98,
  "Person Name": "James Scott Boese",
  "Missing Since": "11/18/2001",
  "Missing From": " Granbury, Texas",
  "Classification": "Endangered Missing",
  "Sex": "Male",
  "Race": "White",
  "Date of Birth": "06/23/1969 (54)",
  "Missing Age": 32,
  "Height": "5'10",
  "Weight": "150 pounds",
  "Latitude": 32.4407788,
  "Longitude": -97.7926088
},
{
  "_id": {
    "$oid": "6594be5ba930787fdc6316c6"
  },
  "Unnamed: 1": 97,
  "Person Name": "Fredrick Joseph Boehm",
  "Missing Since": "01/25/2001",
  "Missing From": " Marshall, Texas",
  "Classification": "Endangered Missing",
  "Sex": "Male",
  "Race": "White",
  "Date of Birth": "04/29/1977 (46)",
  "Missing Age": 23,
  "Height": "6'0",
  "Weight": "130 pounds",
  "Latitude": 32.5447756,
  "Longitude": -94.3661004
},
{
  "_id": {
    "$oid": "6594be5ba930787fdc6316c7"
  },
  "Unnamed: 1": 100,
  "Person Name": "Kristy Lynne Booth",
  "Missing Since": "02/02/1980",
  "Missing From": " Midland, Texas",
  "Classification": "Endangered Missing",
  "Sex": "Female",
  "Race": "White",
  "Date of Birth": "12/26/1960 (62)",
  "Missing Age": 19,
  "Height": "5'7",
  "Weight": "115 pounds",
  "Latitude": 31.83688,
  "Longitude": -102.0103767
},
{
  "_id": {
    "$oid": "6594be5ba930787fdc6316c8"
  },
  "Unnamed: 1": 104,
  "Person Name": "Ebrahim Bozorgi",
  "Missing Since": "05/27/1999",
  "Missing From": " Pasadena, Texas",
  "Classification": "Family Abduction",
  "Sex": "Male",
  "Race": " Asian, Biracial, Hispanic",
  "Date of Birth": "05/17/1993 (30)",
  "Missing Age": 6,
  "Height": "4'2",
  "Weight": "60 pounds",
  "Latitude": 29.6910753,
  "Longitude": -95.2092076
},
{
  "_id": {
    "$oid": "6594be5ba930787fdc6316c9"
  },
  "Unnamed: 1": 105,
  "Person Name": "Zafar Bozorgi",
  "Missing Since": "05/27/1999",
  "Missing From": " Pasadena, Texas",
  "Classification": "Family Abduction",
  "Sex": "Male",
  "Race": " Asian, Biracial, Hispanic",
  "Date of Birth": "08/13/1997 (26)",
  "Missing Age": 1,
  "Height": "3'0 - 3'5",
  "Weight": "31 pounds",
  "Latitude": 29.6910753,
  "Longitude": -95.2092076
},
{
  "_id": {
    "$oid": "6594be5ba930787fdc6316ca"
  },
  "Unnamed: 1": 107,
  "Person Name": "Walter David Brawner",
  "Missing Since": "06/10/2008",
  "Missing From": " Shepherd, Texas",
  "Classification": "Endangered Missing",
  "Sex": "Male",
  "Race": "White",
  "Date of Birth": "01/26/1941 (82)",
  "Missing Age": 67,
  "Height": "5'4",
  "Weight": "120 pounds",
  "Latitude": 30.4979813,
  "Longitude": -94.9966006
},
{
  "_id": {
    "$oid": "6594be5ba930787fdc6316cb"
  },
  "Unnamed: 1": 106,
  "Person Name": "David Glen Bratton",
  "Missing Since": "07/24/1986",
  "Missing From": " Greenville, Texas",
  "Classification": "Endangered Missing",
  "Sex": "Male",
  "Race": "White",
  "Date of Birth": "10/27/1960 (63)",
  "Missing Age": 25,
  "Height": "6'0",
  "Weight": "130 pounds",
  "Latitude": 33.1384488,
  "Longitude": -96.1108066
},
{
  "_id": {
    "$oid": "6594be5ba930787fdc6316cc"
  },
  "Unnamed: 1": 108,
  "Person Name": "Jeffrey Wayne Braziel",
  "Missing Since": "02/28/2006",
  "Missing From": " Midland, Texas",
  "Classification": "Endangered Missing",
  "Sex": "Male",
  "Race": "Black",
  "Date of Birth": "02/04/1969 (54)",
  "Missing Age": 37,
  "Height": "5'6 - 5'7",
  "Weight": "150 - 160 pounds",
  "Latitude": 31.83688,
  "Longitude": -102.0103767
},
{
  "_id": {
    "$oid": "6594be5ba930787fdc6316cd"
  },
  "Unnamed: 1": 94,
  "Person Name": "Edna Laverne Blodgett",
  "Missing Since": "06/02/1993",
  "Missing From": " Post, Texas",
  "Classification": "Endangered Missing",
  "Sex": "Female",
  "Race": "White",
  "Date of Birth": "06/22/1917 (106)",
  "Missing Age": 75,
  "Height": "5'5",
  "Weight": "121 pounds",
  "Latitude": 33.1909246,
  "Longitude": -101.380662
},
{
  "_id": {
    "$oid": "6594be5ba930787fdc6316ce"
  },
  "Unnamed: 1": 109,
  "Person Name": "Tara Suzette Breckenridge",
  "Missing Since": "08/04/1992",
  "Missing From": " Houston, Texas",
  "Classification": "Endangered Missing",
  "Sex": "Female",
  "Race": "White",
  "Date of Birth": "09/30/1968 (55)",
  "Missing Age": 23,
  "Height": "5'5",
  "Weight": "110 pounds",
  "Latitude": 29.7589382,
  "Longitude": -95.3676974
},
{
  "_id": {
    "$oid": "6594be5ba930787fdc6316cf"
  },
  "Unnamed: 1": 111,
  "Person Name": "Joyce Creola Brewer",
  "Missing Since": "09/06/1970",
  "Missing From": " Grand Prairie, Texas",
  "Classification": "Endangered Missing",
  "Sex": "Female",
  "Race": "White",
  "Date of Birth": "01/24/1955 (68)",
  "Missing Age": 15,
  "Height": "5'7",
  "Weight": "135 pounds",
  "Latitude": 32.7459645,
  "Longitude": -96.9977846
},
{
  "_id": {
    "$oid": "6594be5ba930787fdc6316d0"
  },
  "Unnamed: 1": 112,
  "Person Name": "Katie Jo Brewer",
  "Missing Since": "09/12/2009",
  "Missing From": " Bonham, Texas",
  "Classification": "Endangered Missing",
  "Sex": "Female",
  "Race": "White",
  "Date of Birth": "12/12/1937 (86)",
  "Missing Age": 71,
  "Height": "5'2",
  "Weight": "116 pounds",
  "Latitude": 33.5822077,
  "Longitude": -96.1785028
},
{
  "_id": {
    "$oid": "6594be5ba930787fdc6316d1"
  },
  "Unnamed: 1": 102,
  "Person Name": "Tina Louise Bowen",
  "Missing Since": "07/14/1997",
  "Missing From": " Conroe, Texas",
  "Classification": "Endangered Missing",
  "Sex": "Female",
  "Race": "White",
  "Date of Birth": "11/17/1978 (45)",
  "Missing Age": 18,
  "Height": "5'6 - 5'9",
  "Weight": "110 - 130 pounds",
  "Latitude": 30.3118769,
  "Longitude": -95.4560512
},
{
  "_id": {
    "$oid": "6594be5ba930787fdc6316d2"
  },
  "Unnamed: 1": 113,
  "Person Name": "Veronica Helen Brewer",
  "Missing Since": "07/01/1986",
  "Missing From": " Missouri City, Texas",
  "Classification": "Endangered Missing",
  "Sex": "Female",
  "Race": "White",
  "Date of Birth": "08/18/1962 (61)",
  "Missing Age": 23,
  "Height": "5'6 - 5'9",
  "Weight": "110 - 120 pounds",
  "Latitude": 29.6185669,
  "Longitude": -95.5377215
},
{
  "_id": {
    "$oid": "6594be5ba930787fdc6316d3"
  },
  "Unnamed: 1": 101,
  "Person Name": "Ronda Renee Ermel Bosquez",
  "Missing Since": "08/11/1993",
  "Missing From": " Beaumont, Texas",
  "Classification": "Endangered Missing",
  "Sex": "Female",
  "Race": "White",
  "Date of Birth": "08/23/1959 (64)",
  "Missing Age": 33,
  "Height": "5'6",
  "Weight": "97 pounds",
  "Latitude": 30.0860459,
  "Longitude": -94.1018461
},
{
  "_id": {
    "$oid": "6594be5ba930787fdc6316d4"
  },
  "Unnamed: 1": 118,
  "Person Name": "Diane Lynn Brooks",
  "Missing Since": "09/08/1995",
  "Missing From": " Austin, Texas",
  "Classification": "Endangered Missing",
  "Sex": "Female",
  "Race": "White",
  "Date of Birth": "01/13/1963 (60)",
  "Missing Age": 32,
  "Height": "5'7",
  "Weight": "110 pounds",
  "Latitude": 30.2711286,
  "Longitude": -97.7436995
},
{
  "_id": {
    "$oid": "6594be5ba930787fdc6316d5"
  },
  "Unnamed: 1": 114,
  "Person Name": "Kedrian Lenard Briggs",
  "Missing Since": "09/01/2009",
  "Missing From": " Houston, Texas",
  "Classification": "Missing",
  "Sex": "Male",
  "Race": "Black",
  "Date of Birth": "07/09/1975 (48)",
  "Missing Age": 34,
  "Height": "6'4",
  "Weight": "250 pounds",
  "Latitude": 29.7589382,
  "Longitude": -95.3676974
},
{
  "_id": {
    "$oid": "6594be5ba930787fdc6316d6"
  },
  "Unnamed: 1": 110,
  "Person Name": "David Elliott Brendemihl",
  "Missing Since": "12/31/2005",
  "Missing From": " Lewisville, Texas",
  "Classification": "Missing",
  "Sex": "Male",
  "Race": "White",
  "Date of Birth": "05/27/1952 (71)",
  "Missing Age": 53,
  "Height": "5'7",
  "Weight": "180 pounds",
  "Latitude": 33.046233,
  "Longitude": -96.994174
},
{
  "_id": {
    "$oid": "6594be5ba930787fdc6316d7"
  },
  "Unnamed: 1": 116,
  "Person Name": "Lynda Lee Bronaugh",
  "Missing Since": "04/08/1991",
  "Missing From": " Laredo, Texas",
  "Classification": "Endangered Missing",
  "Sex": "Female",
  "Race": "Asian",
  "Date of Birth": "07/19/1967 (56)",
  "Missing Age": 23,
  "Height": "5'0",
  "Weight": "120 pounds",
  "Latitude": 27.5030915,
  "Longitude": -99.5075644
},
{
  "_id": {
    "$oid": "6594be5ba930787fdc6316d8"
  },
  "Unnamed: 1": 119,
  "Person Name": "Edwin X. Brown",
  "Missing Since": "05/02/2013",
  "Missing From": " Houston, Texas",
  "Classification": "Endangered Missing",
  "Sex": "Male",
  "Race": "White",
  "Date of Birth": "04/23/1972 (51)",
  "Missing Age": 41,
  "Height": "5'9 - 5'11",
  "Weight": "160 - 170 pounds",
  "Latitude": 29.7589382,
  "Longitude": -95.3676974
},
{
  "_id": {
    "$oid": "6594be5ba930787fdc6316d9"
  },
  "Unnamed: 1": 122,
  "Person Name": "Mitchell Buchanan Jr.",
  "Missing Since": "10/25/2006",
  "Missing From": " Dallas, Texas",
  "Classification": "Endangered Missing",
  "Sex": "Male",
  "Race": "Black",
  "Date of Birth": "02/04/1936 (87)",
  "Missing Age": 70,
  "Height": "6'4",
  "Weight": "230 pounds",
  "Latitude": 32.7762719,
  "Longitude": -96.7968559
},
{
  "_id": {
    "$oid": "6594be5ba930787fdc6316da"
  },
  "Unnamed: 1": 121,
  "Person Name": "Kathrine Marie Bruno",
  "Missing Since": "06/01/2002",
  "Missing From": " Livingston, Texas",
  "Classification": "Endangered Missing",
  "Sex": "Female",
  "Race": "White",
  "Date of Birth": "12/13/1956 (67)",
  "Missing Age": 45,
  "Height": "5'2",
  "Weight": "110 pounds",
  "Latitude": 30.711029,
  "Longitude": -94.9329898
},
{
  "_id": {
    "$oid": "6594be5ba930787fdc6316db"
  },
  "Unnamed: 1": 120,
  "Person Name": "Scott Allen Brown",
  "Missing Since": "06/01/1996",
  "Missing From": " Houston, Texas",
  "Classification": "Missing",
  "Sex": "Male",
  "Race": "White",
  "Date of Birth": "08/07/1970 (53)",
  "Missing Age": 25,
  "Height": "6'0",
  "Weight": "180 pounds",
  "Latitude": 29.7589382,
  "Longitude": -95.3676974
},
{
  "_id": {
    "$oid": "6594be5ba930787fdc6316dc"
  },
  "Unnamed: 1": 123,
  "Person Name": "Thurlow Matt Buchanan",
  "Missing Since": "11/09/1987",
  "Missing From": " Fort Worth, Texas",
  "Classification": "Endangered Missing",
  "Sex": "Male",
  "Race": "Black",
  "Date of Birth": "04/12/1966 (57)",
  "Missing Age": 21,
  "Height": "5'9",
  "Weight": "160 pounds",
  "Latitude": 32.753177,
  "Longitude": -97.3327459
},
{
  "_id": {
    "$oid": "6594be5ba930787fdc6316dd"
  },
  "Unnamed: 1": 124,
  "Person Name": "Lakiesha Trenail Buckner",
  "Missing Since": "08/13/1999",
  "Missing From": " Marshall, Texas",
  "Classification": "Endangered Missing",
  "Sex": "Female",
  "Race": "Black",
  "Date of Birth": "06/19/1983 (40)",
  "Missing Age": 16,
  "Height": "4'6 - 4'7",
  "Weight": "115 pounds",
  "Latitude": 32.5447756,
  "Longitude": -94.3661004
},
{
  "_id": {
    "$oid": "6594be5ba930787fdc6316de"
  },
  "Unnamed: 1": 125,
  "Person Name": "Shapammala Latrisha Buckner",
  "Missing Since": "05/21/2017",
  "Missing From": " Houston, Texas",
  "Classification": "Endangered Missing",
  "Sex": "Female",
  "Race": "Black",
  "Date of Birth": "08/01/1996 (27)",
  "Missing Age": 20,
  "Height": "4'11",
  "Weight": "100 pounds",
  "Latitude": 29.7589382,
  "Longitude": -95.3676974
},
{
  "_id": {
    "$oid": "6594be5ba930787fdc6316df"
  },
  "Unnamed: 1": 126,
  "Person Name": "Stephanie Michele Buehler",
  "Missing Since": "09/08/1990",
  "Missing From": " Houston, Texas",
  "Classification": "Endangered Missing",
  "Sex": "Female",
  "Race": "White",
  "Date of Birth": "09/10/1971 (52)",
  "Missing Age": 18,
  "Height": "5'7",
  "Weight": "125 - 140 pounds",
  "Latitude": 29.7589382,
  "Longitude": -95.3676974
},
{
  "_id": {
    "$oid": "6594be5ba930787fdc6316e0"
  },
  "Unnamed: 1": 127,
  "Person Name": "Bethany Lynn Bull",
  "Missing Since": "05/31/2003",
  "Missing From": " Amarillo, Texas",
  "Classification": "Endangered Missing",
  "Sex": "Female",
  "Race": "White",
  "Date of Birth": "11/29/1963 (60)",
  "Missing Age": 39,
  "Height": "5'4",
  "Weight": "230 pounds",
  "Latitude": 35.2072185,
  "Longitude": -101.833824
},
{
  "_id": {
    "$oid": "6594be5ba930787fdc6316e1"
  },
  "Unnamed: 1": 129,
  "Person Name": "Alex Michael Burkett",
  "Missing Since": "11/01/2018",
  "Missing From": " Livingston, Texas",
  "Classification": "Missing",
  "Sex": "Male",
  "Race": "White",
  "Date of Birth": "11/21/1986 (37)",
  "Missing Age": 31,
  "Height": "5'10 - 5'11",
  "Weight": "165 - 191 pounds",
  "Latitude": 30.711029,
  "Longitude": -94.9329898
},
{
  "_id": {
    "$oid": "6594be5ba930787fdc6316e2"
  },
  "Unnamed: 1": 128,
  "Person Name": "Kelley Knowles Burgamy",
  "Missing Since": "11/15/2003",
  "Missing From": " Dallas, Texas",
  "Classification": "Missing",
  "Sex": "Female",
  "Race": "White",
  "Date of Birth": "08/16/1965 (58)",
  "Missing Age": 38,
  "Height": "5'6 - 5'7",
  "Weight": "110 - 122 pounds",
  "Latitude": 32.7762719,
  "Longitude": -96.7968559
},
{
  "_id": {
    "$oid": "6594be5ba930787fdc6316e3"
  },
  "Unnamed: 1": 130,
  "Person Name": "Mark Travis Burkett Jr.",
  "Missing Since": "10/25/2010",
  "Missing From": " Amarillo, Texas",
  "Classification": "Endangered Missing",
  "Sex": "Male",
  "Race": "White",
  "Date of Birth": "08/23/1990 (33)",
  "Missing Age": 20,
  "Height": "5'4 - 5'5",
  "Weight": "150 - 165 pounds",
  "Latitude": 35.2072185,
  "Longitude": -101.833824
},
{
  "_id": {
    "$oid": "6594be5ba930787fdc6316e4"
  },
  "Unnamed: 1": 131,
  "Person Name": "Mollie Eliza Burr",
  "Missing Since": "05/15/1994",
  "Missing From": " Houston, Texas",
  "Classification": "Endangered Missing",
  "Sex": "Female",
  "Race": "White",
  "Date of Birth": "01/13/1994 (29)",
  "Missing Age": 43,
  "Height": "5'5",
  "Weight": "105 pounds",
  "Latitude": 29.7589382,
  "Longitude": -95.3676974
},
{
  "_id": {
    "$oid": "6594be5ba930787fdc6316e5"
  },
  "Unnamed: 1": 134,
  "Person Name": "Teresa Marie Byers",
  "Missing Since": "09/01/1979",
  "Missing From": " Kilgore, Texas",
  "Classification": "Endangered Missing",
  "Sex": "Female",
  "Race": "White",
  "Date of Birth": "05/28/1961 (62)",
  "Missing Age": 18,
  "Height": "5'4",
  "Weight": "100 pounds",
  "Latitude": 32.3860733,
  "Longitude": -94.8758518
},
{
  "_id": {
    "$oid": "6594be5ba930787fdc6316e6"
  },
  "Unnamed: 1": 132,
  "Person Name": "Devin John Bush",
  "Missing Since": "01/16/2013",
  "Missing From": " Brownsville, Texas",
  "Classification": "Missing",
  "Sex": "Male",
  "Race": "White",
  "Date of Birth": "01/29/1994 (29)",
  "Missing Age": 18,
  "Height": "6'2",
  "Weight": "190 pounds",
  "Latitude": 25.9015688,
  "Longitude": -97.4984005
},
{
  "_id": {
    "$oid": "6594be5ba930787fdc6316e7"
  },
  "Unnamed: 1": 135,
  "Person Name": "William Arlin Bynum",
  "Missing Since": "08/15/2003",
  "Missing From": " Big Spring, Texas",
  "Classification": "Endangered Missing",
  "Sex": "Male",
  "Race": "White",
  "Date of Birth": "03/12/1963 (60)",
  "Missing Age": 40,
  "Height": "6'0",
  "Weight": "165 - 180 pounds",
  "Latitude": 32.250398,
  "Longitude": -101.4787356
},
{
  "_id": {
    "$oid": "6594be5ba930787fdc6316e8"
  },
  "Unnamed: 1": 133,
  "Person Name": "Melvin Eugene Butler II",
  "Missing Since": "03/10/2002",
  "Missing From": " Houston, Texas",
  "Classification": "Endangered Missing",
  "Sex": "Male",
  "Race": "White",
  "Date of Birth": "09/17/1955 (68)",
  "Missing Age": 46,
  "Height": "5'9",
  "Weight": "145 pounds",
  "Latitude": 29.7589382,
  "Longitude": -95.3676974
},
{
  "_id": {
    "$oid": "6594be5ba930787fdc6316e9"
  },
  "Unnamed: 1": 136,
  "Person Name": "Christine Starrine Byrd",
  "Missing Since": "05/27/1992",
  "Missing From": " Tyler, Texas",
  "Classification": "Endangered Missing",
  "Sex": "Female",
  "Race": "Black",
  "Date of Birth": "07/16/1949 (74)",
  "Missing Age": 42,
  "Height": "5'1 - 5'3",
  "Weight": "160 pounds",
  "Latitude": 30.7563939,
  "Longitude": -94.3984613
},
{
  "_id": {
    "$oid": "6594be5ba930787fdc6316ea"
  },
  "Unnamed: 1": 137,
  "Person Name": "Jose Moreno Caballero",
  "Missing Since": "03/07/1996",
  "Missing From": " Dumas, Texas",
  "Classification": "Missing",
  "Sex": "Male",
  "Race": "Hispanic",
  "Date of Birth": "04/22/1959 (64)",
  "Missing Age": 36,
  "Height": "5'8",
  "Weight": "150 pounds",
  "Latitude": 35.8630199,
  "Longitude": -101.9663192
},
{
  "_id": {
    "$oid": "6594be5ba930787fdc6316eb"
  },
  "Unnamed: 1": 143,
  "Person Name": "Abraham Ignacio Campos",
  "Missing Since": "04/15/2005",
  "Missing From": " Houston, Texas",
  "Classification": "Family Abduction",
  "Sex": "Male",
  "Race": "Hispanic",
  "Date of Birth": "08/06/2000 (23)",
  "Missing Age": 4,
  "Height": "3'6",
  "Weight": "50 pounds",
  "Latitude": 29.7589382,
  "Longitude": -95.3676974
},
{
  "_id": {
    "$oid": "6594be5ba930787fdc6316ec"
  },
  "Unnamed: 1": 138,
  "Person Name": "Darrell Glen Calhoun",
  "Missing Since": "07/14/1992",
  "Missing From": " Conroe, Texas",
  "Classification": "Endangered Missing",
  "Sex": "Male",
  "Race": "White",
  "Date of Birth": "08/28/1956 (67)",
  "Missing Age": 35,
  "Height": "5'6 - 5'9",
  "Weight": "160 - 170 pounds",
  "Latitude": 30.3118769,
  "Longitude": -95.4560512
},
{
  "_id": {
    "$oid": "6594be5ba930787fdc6316ed"
  },
  "Unnamed: 1": 139,
  "Person Name": "Michael James Calvert",
  "Missing Since": "01/21/2016",
  "Missing From": " Channelview, Texas",
  "Classification": "Endangered Missing",
  "Sex": "Male",
  "Race": "White",
  "Date of Birth": "11/13/1986 (37)",
  "Missing Age": 29,
  "Height": "5'10",
  "Weight": "165 pounds",
  "Latitude": 29.7760599,
  "Longitude": -95.1146533
},
{
  "_id": {
    "$oid": "6594be5ba930787fdc6316ee"
  },
  "Unnamed: 1": 140,
  "Person Name": "A. J. Campbell Jr.",
  "Missing Since": "09/06/1958",
  "Missing From": " Goliad, Texas",
  "Classification": "Endangered Missing",
  "Sex": "Male",
  "Race": "White",
  "Date of Birth": "09/20/1957 (66)",
  "Missing Age": 11,
  "Height": "2'2",
  "Weight": "25 pounds",
  "Latitude": 28.6467776,
  "Longitude": -97.4379552
},
{
  "_id": {
    "$oid": "6594be5ba930787fdc6316ef"
  },
  "Unnamed: 1": 141,
  "Person Name": "Elizabeth Ann Campbell",
  "Missing Since": "04/25/1988",
  "Missing From": " Copperas Cove, Texas",
  "Classification": "Endangered Missing",
  "Sex": "Female",
  "Race": " Asian, Biracial, White",
  "Date of Birth": "05/31/1967 (56)",
  "Missing Age": 20,
  "Height": "5'2",
  "Weight": "96 - 106 pounds",
  "Latitude": 31.124062,
  "Longitude": -97.9030785
},
{
  "_id": {
    "$oid": "6594be5ba930787fdc6316f0"
  },
  "Unnamed: 1": 144,
  "Person Name": "Juan Leonel Campos",
  "Missing Since": "12/09/2016",
  "Missing From": " San Juan, Texas",
  "Classification": "Endangered Runaway",
  "Sex": "Male",
  "Race": "Hispanic",
  "Date of Birth": "05/14/2000 (23)",
  "Missing Age": 16,
  "Height": "5'4",
  "Weight": "140 pounds",
  "Latitude": 26.1892409,
  "Longitude": -98.1552872
},
{
  "_id": {
    "$oid": "6594be5ba930787fdc6316f1"
  },
  "Unnamed: 1": 147,
  "Person Name": "Heather Danielle Cannon",
  "Missing Since": "08/27/2009",
  "Missing From": " Athens, Texas",
  "Classification": "Endangered Missing",
  "Sex": "Female",
  "Race": "White",
  "Date of Birth": "03/28/1994 (29)",
  "Missing Age": 15,
  "Height": "5'5",
  "Weight": "140 - 150 pounds",
  "Latitude": 32.2044416,
  "Longitude": -95.854914
},
{
  "_id": {
    "$oid": "6594be5ba930787fdc6316f2"
  },
  "Unnamed: 1": 146,
  "Person Name": "Jose Nelson Canas",
  "Missing Since": "01/04/2019",
  "Missing From": " Waller, Texas",
  "Classification": "Missing",
  "Sex": "Male",
  "Race": "Hispanic",
  "Date of Birth": "07/25/1985 (38)",
  "Missing Age": 33,
  "Height": "6'2",
  "Weight": "300 pounds",
  "Latitude": 29.9443902,
  "Longitude": -95.9955885
},
{
  "_id": {
    "$oid": "6594be5ba930787fdc6316f3"
  },
  "Unnamed: 1": 148,
  "Person Name": "Ruben Cantu",
  "Missing Since": "03/29/1995",
  "Missing From": " Laredo, Texas",
  "Classification": "Endangered Missing",
  "Sex": "Male",
  "Race": "Hispanic",
  "Date of Birth": "11/19/1960 (63)",
  "Missing Age": 34,
  "Height": "5'5",
  "Weight": "160 pounds",
  "Latitude": 27.5030915,
  "Longitude": -99.5075644
},
{
  "_id": {
    "$oid": "6594be5ba930787fdc6316f4"
  },
  "Unnamed: 1": 151,
  "Person Name": "Mary Virginia Carpenter",
  "Missing Since": "06/01/1948",
  "Missing From": " Denton, Texas",
  "Classification": "Endangered Missing",
  "Sex": "Female",
  "Race": "White",
  "Date of Birth": "01/15/1927 (96)",
  "Missing Age": 21,
  "Height": "5'3",
  "Weight": "120 pounds",
  "Latitude": 33.1838787,
  "Longitude": -97.1413417
},
{
  "_id": {
    "$oid": "6594be5ba930787fdc6316f5"
  },
  "Unnamed: 1": 150,
  "Person Name": "Javier Cardenas",
  "Missing Since": "06/14/2021",
  "Missing From": " Houston, Texas",
  "Classification": "Missing",
  "Sex": "Male",
  "Race": "Hispanic",
  "Date of Birth": "11/10/1993 (30)",
  "Missing Age": 27,
  "Height": "5'8",
  "Weight": "180 pounds",
  "Latitude": 29.7589382,
  "Longitude": -95.3676974
},
{
  "_id": {
    "$oid": "6594be5ba930787fdc6316f6"
  },
  "Unnamed: 1": 152,
  "Person Name": "Marlon Aguilar Carranza",
  "Missing Since": "07/02/2002",
  "Missing From": " Laredo, Texas",
  "Classification": "Migrant",
  "Sex": "Male",
  "Race": "Hispanic",
  "Date of Birth": "02/20/1970 (53)",
  "Missing Age": 32,
  "Height": "5'6",
  "Weight": "138 pounds",
  "Latitude": 27.5030915,
  "Longitude": -99.5075644
},
{
  "_id": {
    "$oid": "6594be5ba930787fdc6316f7"
  },
  "Unnamed: 1": 149,
  "Person Name": "Robert Bernard Canuelle",
  "Missing Since": "10/03/2003",
  "Missing From": " Lake Travis, Texas",
  "Classification": "Lost/Injured Missing",
  "Sex": "Male",
  "Race": "White",
  "Date of Birth": "12/01/1943 (80)",
  "Missing Age": 59,
  "Height": "5'8",
  "Weight": "160 pounds",
  "Latitude": 30.4309372,
  "Longitude": -97.94983564386266
},
{
  "_id": {
    "$oid": "6594be5ba930787fdc6316f8"
  },
  "Unnamed: 1": 154,
  "Person Name": "Monica Cassandra Carrasco",
  "Missing Since": "10/02/2003",
  "Missing From": " Balmorhea, Texas",
  "Classification": "Endangered Missing",
  "Sex": "Female",
  "Race": "Hispanic",
  "Date of Birth": "12/13/1986 (37)",
  "Missing Age": 16,
  "Height": "5'5",
  "Weight": "100 - 111 pounds",
  "Latitude": 30.9833741,
  "Longitude": -103.742501
},
{
  "_id": {
    "$oid": "6594be5ba930787fdc6316f9"
  },
  "Unnamed: 1": 153,
  "Person Name": "Bianca Zannette Carrasco",
  "Missing Since": "05/01/2016",
  "Missing From": " San Antonio, Texas",
  "Classification": "Endangered Missing",
  "Sex": "Female",
  "Race": "Hispanic",
  "Date of Birth": "07/21/1986 (37)",
  "Missing Age": 29,
  "Height": "5'1",
  "Weight": "125 pounds",
  "Latitude": 29.4246002,
  "Longitude": -98.4951405
},
{
  "_id": {
    "$oid": "6594be5ba930787fdc6316fa"
  },
  "Unnamed: 1": 157,
  "Person Name": "Stacy Lynn Carson",
  "Missing Since": "02/01/2004",
  "Missing From": " Killeen, Texas",
  "Classification": "Endangered Missing",
  "Sex": "Female",
  "Race": "White",
  "Date of Birth": "11/22/1984 (39)",
  "Missing Age": 19,
  "Height": "5'5",
  "Weight": "120 pounds",
  "Latitude": 31.1171441,
  "Longitude": -97.727796
},
{
  "_id": {
    "$oid": "6594be5ba930787fdc6316fb"
  },
  "Unnamed: 1": 155,
  "Person Name": "Desiree Chaunessy Carroll",
  "Missing Since": "03/25/1983",
  "Missing From": " Kosse, Texas",
  "Classification": "Non-Family Abduction",
  "Sex": "Female",
  "Race": "White",
  "Date of Birth": "07/02/1980 (43)",
  "Missing Age": 2,
  "Height": "2'6",
  "Weight": "40 pounds",
  "Latitude": 31.3076774,
  "Longitude": -96.6319231
},
{
  "_id": {
    "$oid": "6594be5ba930787fdc6316fc"
  },
  "Unnamed: 1": 158,
  "Person Name": "Cecil William Casey",
  "Missing Since": "09/28/1987",
  "Missing From": " Gatesville, Texas",
  "Classification": "Missing",
  "Sex": "Male",
  "Race": "White",
  "Date of Birth": "03/02/1943 (80)",
  "Missing Age": 44,
  "Height": "5'11",
  "Weight": "167 pounds",
  "Latitude": 31.4351645,
  "Longitude": -97.743911
},
{
  "_id": {
    "$oid": "6594be5ba930787fdc6316fd"
  },
  "Unnamed: 1": 161,
  "Person Name": "Jerry Castillo Jr.",
  "Missing Since": "03/21/2015",
  "Missing From": " El Paso, Texas",
  "Classification": "Endangered Missing",
  "Sex": "Male",
  "Race": "Hispanic",
  "Date of Birth": "05/21/1993 (30)",
  "Missing Age": 21,
  "Height": "5'6 - 5'9",
  "Weight": "175 pounds",
  "Latitude": 31.7550511,
  "Longitude": -106.488234
},
{
  "_id": {
    "$oid": "6594be5ba930787fdc6316fe"
  },
  "Unnamed: 1": 159,
  "Person Name": "Krystal Nicole Cashew",
  "Missing Since": "07/31/2007",
  "Missing From": " Houston, Texas",
  "Classification": "Endangered Missing",
  "Sex": "Female",
  "Race": "Black",
  "Date of Birth": "05/12/1985 (38)",
  "Missing Age": 22,
  "Height": "5'9",
  "Weight": "130 pounds",
  "Latitude": 29.7589382,
  "Longitude": -95.3676974
},
{
  "_id": {
    "$oid": "6594be5ba930787fdc6316ff"
  },
  "Unnamed: 1": 160,
  "Person Name": "Cynthia Laura Castellano",
  "Missing Since": "05/19/2002",
  "Missing From": " Laredo, Texas",
  "Classification": "Endangered Missing",
  "Sex": "Female",
  "Race": "Hispanic",
  "Date of Birth": "09/24/1976 (47)",
  "Missing Age": 25,
  "Height": "5'3",
  "Weight": "130 pounds",
  "Latitude": 27.5030915,
  "Longitude": -99.5075644
},
{
  "_id": {
    "$oid": "6594be5ba930787fdc631700"
  },
  "Unnamed: 1": 163,
  "Person Name": "Dalia Bayardo Castro",
  "Missing Since": "04/01/2007",
  "Missing From": " Bellmead, Texas",
  "Classification": "Endangered Missing",
  "Sex": "Female",
  "Race": "Hispanic",
  "Date of Birth": "01/08/1964 (59)",
  "Missing Age": 43,
  "Height": "5'4",
  "Weight": "130 pounds",
  "Latitude": 31.5940545,
  "Longitude": -97.1088903
},
{
  "_id": {
    "$oid": "6594be5ba930787fdc631701"
  },
  "Unnamed: 1": 164,
  "Person Name": "Rogelio Realme Cerda",
  "Missing Since": "06/29/1975",
  "Missing From": " Bay City, Texas",
  "Classification": "Endangered Missing",
  "Sex": "Male",
  "Race": "Hispanic",
  "Date of Birth": "12/24/1959 (63)",
  "Missing Age": 15,
  "Height": "5'9 - 5'10",
  "Weight": "160 - 180 pounds",
  "Latitude": 28.9827565,
  "Longitude": -95.969402
},
{
  "_id": {
    "$oid": "6594be5ba930787fdc631702"
  },
  "Unnamed: 1": 162,
  "Person Name": "Robert Dale Casto",
  "Missing Since": "11/27/1983",
  "Missing From": " Arlington, Texas",
  "Classification": "Endangered Missing",
  "Sex": "Male",
  "Race": "White",
  "Date of Birth": "01/21/1962 (61)",
  "Missing Age": 21,
  "Height": "6'2",
  "Weight": "175 pounds",
  "Latitude": 32.7355816,
  "Longitude": -97.1071186
},
{
  "_id": {
    "$oid": "6594be5ba930787fdc631703"
  },
  "Unnamed: 1": 166,
  "Person Name": "Manuel Chabarria Jr.",
  "Missing Since": "04/01/1997",
  "Missing From": " Arlington, Texas",
  "Classification": "Endangered Missing",
  "Sex": "Male",
  "Race": "Hispanic",
  "Date of Birth": "02/24/1972 (51)",
  "Missing Age": 25,
  "Height": "5'5",
  "Weight": "130 pounds",
  "Latitude": 32.7355816,
  "Longitude": -97.1071186
},
{
  "_id": {
    "$oid": "6594be5ba930787fdc631704"
  },
  "Unnamed: 1": 168,
  "Person Name": "Charita Antionette Chambers",
  "Missing Since": "10/22/2018",
  "Missing From": " Houston, Texas",
  "Classification": "Missing",
  "Sex": "Female",
  "Race": "Black",
  "Date of Birth": "09/17/1983 (40)",
  "Missing Age": 35,
  "Height": "5'0 - 5'2",
  "Weight": "115 - 152 pounds",
  "Latitude": 29.7589382,
  "Longitude": -95.3676974
},
{
  "_id": {
    "$oid": "6594be5ba930787fdc631705"
  },
  "Unnamed: 1": 170,
  "Person Name": "Christina Jeanette Chandler",
  "Missing Since": "09/30/1990",
  "Missing From": " Fort Worth, Texas",
  "Classification": "Endangered Missing",
  "Sex": "Female",
  "Race": "White",
  "Date of Birth": "01/19/1961 (62)",
  "Missing Age": 29,
  "Height": "5'2",
  "Weight": "100 pounds",
  "Latitude": 32.753177,
  "Longitude": -97.3327459
},
{
  "_id": {
    "$oid": "6594be5ba930787fdc631706"
  },
  "Unnamed: 1": 171,
  "Person Name": "Lisa Lee Chandler",
  "Missing Since": "09/23/2007",
  "Missing From": " Wolfe City, Texas",
  "Classification": "Endangered Missing",
  "Sex": "Female",
  "Race": "White",
  "Date of Birth": "03/03/1963 (60)",
  "Missing Age": 44,
  "Height": "5'6",
  "Weight": "110 - 170 pounds",
  "Latitude": 33.3686687,
  "Longitude": -96.0712987
},
{
  "_id": {
    "$oid": "6594be5ba930787fdc631707"
  },
  "Unnamed: 1": 172,
  "Person Name": "Kristen Elizabeth Charbonneau",
  "Missing Since": "08/11/2005",
  "Missing From": " Fort Worth, Texas",
  "Classification": "Endangered Missing",
  "Sex": "Female",
  "Race": "White",
  "Date of Birth": "09/27/1980 (43)",
  "Missing Age": 24,
  "Height": "5'2 - 5'3",
  "Weight": "112 pounds",
  "Latitude": 32.753177,
  "Longitude": -97.3327459
},
{
  "_id": {
    "$oid": "6594be5ba930787fdc631708"
  },
  "Unnamed: 1": 173,
  "Person Name": "Margaret Jane Chauncy",
  "Missing Since": "10/20/1987",
  "Missing From": " Texarkana, Texas",
  "Classification": "Endangered Missing",
  "Sex": "Female",
  "Race": "White",
  "Date of Birth": "07/02/1963 (60)",
  "Missing Age": 24,
  "Height": "5'6",
  "Weight": "125 pounds",
  "Latitude": 33.44667445,
  "Longitude": -94.07714830522016
},
{
  "_id": {
    "$oid": "6594be5ba930787fdc631709"
  },
  "Unnamed: 1": 179,
  "Person Name": "Marie Theresa Cherry",
  "Missing Since": "10/10/1992",
  "Missing From": " Fort Hood, Texas",
  "Classification": "Endangered Missing",
  "Sex": "Female",
  "Race": "Black",
  "Date of Birth": "10/07/1967 (56)",
  "Missing Age": 25,
  "Height": "5'6",
  "Weight": "143 pounds",
  "Latitude": 31.2012636,
  "Longitude": -97.7084250211076
},
{
  "_id": {
    "$oid": "6594be5ba930787fdc63170a"
  },
  "Unnamed: 1": 174,
  "Person Name": "Daniella Audrey Chavez",
  "Missing Since": "03/25/2016",
  "Missing From": " San Antonio, Texas",
  "Classification": "Endangered Missing",
  "Sex": "Female",
  "Race": "Hispanic",
  "Date of Birth": "11/16/1985 (38)",
  "Missing Age": 30,
  "Height": "5'3",
  "Weight": "120 pounds",
  "Latitude": 29.4246002,
  "Longitude": -98.4951405
},
{
  "_id": {
    "$oid": "6594be5ba930787fdc63170b"
  },
  "Unnamed: 1": 176,
  "Person Name": "Shawna Michelle Chavez",
  "Missing Since": "06/07/1994",
  "Missing From": " Trinity, Texas",
  "Classification": "Endangered Runaway",
  "Sex": "Female",
  "Race": " Biracial, Hispanic, White",
  "Date of Birth": "08/16/1977 (46)",
  "Missing Age": 15,
  "Height": "5'7",
  "Weight": "150 pounds",
  "Latitude": 31.0834452,
  "Longitude": -95.1219348
},
{
  "_id": {
    "$oid": "6594be5ba930787fdc63170c"
  },
  "Unnamed: 1": 182,
  "Person Name": "Ronald Ray Childress",
  "Missing Since": "09/22/1991",
  "Missing From": " Hankamer, Texas",
  "Classification": "Endangered Missing",
  "Sex": "Male",
  "Race": "Black",
  "Date of Birth": "02/07/1967 (56)",
  "Missing Age": 24,
  "Height": "5'6",
  "Weight": "120 pounds",
  "Latitude": 29.8582755,
  "Longitude": -94.6268618
},
{
  "_id": {
    "$oid": "6594be5ba930787fdc63170d"
  },
  "Unnamed: 1": 183,
  "Person Name": "Austin Jay Childs",
  "Missing Since": "04/09/2005",
  "Missing From": " Freeport, Texas",
  "Classification": "Lost/Injured Missing",
  "Sex": "Male",
  "Race": "White",
  "Date of Birth": "07/27/1987 (36)",
  "Missing Age": 17,
  "Height": "5'9",
  "Weight": "170 pounds",
  "Latitude": 28.9541368,
  "Longitude": -95.3596617
},
{
  "_id": {
    "$oid": "6594be5ba930787fdc63170e"
  },
  "Unnamed: 1": 180,
  "Person Name": "Domingo Chicoj Xirum",
  "Missing Since": "11/03/2013",
  "Missing From": " Baytown, Texas",
  "Classification": "Endangered Runaway",
  "Sex": "Male",
  "Race": "Hispanic",
  "Date of Birth": "06/25/1998 (25)",
  "Missing Age": 15,
  "Height": "5'4",
  "Weight": "120 pounds",
  "Latitude": 29.7355047,
  "Longitude": -94.9774274
},
{
  "_id": {
    "$oid": "6594be5ba930787fdc63170f"
  },
  "Unnamed: 1": 181,
  "Person Name": "Antionette Renee Childress",
  "Missing Since": "10/13/2015",
  "Missing From": " Henderson, Texas",
  "Classification": "Endangered Missing",
  "Sex": "Female",
  "Race": "White",
  "Date of Birth": "10/22/1974 (49)",
  "Missing Age": 40,
  "Height": "5'5",
  "Weight": "140 - 158 pounds",
  "Latitude": 32.182598,
  "Longitude": -95.7893178
},
{
  "_id": {
    "$oid": "6594be5ba930787fdc631710"
  },
  "Unnamed: 1": 184,
  "Person Name": "Michael J. Chouinard",
  "Missing Since": "08/10/1991",
  "Missing From": " Austin, Texas",
  "Classification": "Endangered Missing",
  "Sex": "Male",
  "Race": "White",
  "Date of Birth": "05/10/1963 (60)",
  "Missing Age": 28,
  "Height": "6'0",
  "Weight": "175 pounds",
  "Latitude": 30.2711286,
  "Longitude": -97.7436995
},
{
  "_id": {
    "$oid": "6594be5ba930787fdc631711"
  },
  "Unnamed: 1": 186,
  "Person Name": "Roberto Cedano Cisneros",
  "Missing Since": "01/31/2012",
  "Missing From": " Grapevine, Texas",
  "Classification": "Missing",
  "Sex": "Male",
  "Race": "Hispanic",
  "Date of Birth": "11/26/1981 (42)",
  "Missing Age": 30,
  "Height": "5'9",
  "Weight": "170 pounds",
  "Latitude": 32.9337381,
  "Longitude": -97.0788754
},
{
  "_id": {
    "$oid": "6594be5ba930787fdc631712"
  },
  "Unnamed: 1": 185,
  "Person Name": "Julio Domingo Cifuentes Aguilar",
  "Missing Since": "11/11/2016",
  "Missing From": " Seguin, Texas",
  "Classification": "Endangered Runaway",
  "Sex": "Male",
  "Race": "Hispanic",
  "Date of Birth": "08/08/2000 (23)",
  "Missing Age": 16,
  "Height": "5'3",
  "Weight": "125 pounds",
  "Latitude": 29.5688411,
  "Longitude": -97.9647269
},
{
  "_id": {
    "$oid": "6594be5ba930787fdc631713"
  },
  "Unnamed: 1": 187,
  "Person Name": "Richard Victor Clark II",
  "Missing Since": "08/07/1992",
  "Missing From": " Temple, Texas",
  "Classification": "Endangered Missing",
  "Sex": "Male",
  "Race": "White",
  "Date of Birth": "10/08/1970 (53)",
  "Missing Age": 21,
  "Height": "6'0",
  "Weight": "170 pounds",
  "Latitude": 31.098207,
  "Longitude": -97.3427847
},
{
  "_id": {
    "$oid": "6594be5ba930787fdc631714"
  },
  "Unnamed: 1": 188,
  "Person Name": "Isaac Clay",
  "Missing Since": "04/25/2017",
  "Missing From": " Dallas, Texas",
  "Classification": "Missing",
  "Sex": "Male",
  "Race": "Black",
  "Date of Birth": "11/15/1952 (71)",
  "Missing Age": 64,
  "Height": "5'6 - 5'9",
  "Weight": "180 - 200 pounds",
  "Latitude": 32.7762719,
  "Longitude": -96.7968559
},
{
  "_id": {
    "$oid": "6594be5ba930787fdc631715"
  },
  "Unnamed: 1": 189,
  "Person Name": "Michael Dewayne Clay",
  "Missing Since": "05/18/2021",
  "Missing From": " Houston, Texas",
  "Classification": "Missing",
  "Sex": "Male",
  "Race": "Black",
  "Date of Birth": "10/31/1999 (24)",
  "Missing Age": 21,
  "Height": "5'9 - 5'11",
  "Weight": "160 - 170 pounds",
  "Latitude": 29.7589382,
  "Longitude": -95.3676974
},
{
  "_id": {
    "$oid": "6594be5ba930787fdc631716"
  },
  "Unnamed: 1": 190,
  "Person Name": "Samatha Lynn Clonch",
  "Missing Since": "09/09/1999",
  "Missing From": " Henderson, Texas",
  "Classification": "Endangered Missing",
  "Sex": "Female",
  "Race": "Native American",
  "Date of Birth": "03/17/1986 (37)",
  "Missing Age": 13,
  "Height": "5'6",
  "Weight": "110 pounds",
  "Latitude": 32.182598,
  "Longitude": -95.7893178
},
{
  "_id": {
    "$oid": "6594be5ba930787fdc631717"
  },
  "Unnamed: 1": 191,
  "Person Name": "Donna Kay Cloud",
  "Missing Since": "10/25/2016",
  "Missing From": " Splendora, Texas",
  "Classification": "Endangered Missing",
  "Sex": "Female",
  "Race": "White",
  "Date of Birth": "07/07/1997 (26)",
  "Missing Age": 19,
  "Height": "5'0 - 5'2",
  "Weight": "95 - 133 pounds",
  "Latitude": 30.2329914,
  "Longitude": -95.1610438
},
{
  "_id": {
    "$oid": "6594be5ba930787fdc631718"
  },
  "Unnamed: 1": 194,
  "Person Name": "Craigory Lamar Cofer",
  "Missing Since": "01/24/1999",
  "Missing From": " Palestine, Texas",
  "Classification": "Missing",
  "Sex": "Male",
  "Race": "Black",
  "Date of Birth": "09/30/1974 (49)",
  "Missing Age": 24,
  "Height": "5'10",
  "Weight": "225 pounds",
  "Latitude": 31.7621153,
  "Longitude": -95.6307891
},
{
  "_id": {
    "$oid": "6594be5ba930787fdc631719"
  },
  "Unnamed: 1": 193,
  "Person Name": "Robert Curtis Coe",
  "Missing Since": "03/12/1978",
  "Missing From": " Austin, Texas",
  "Classification": "Endangered Missing",
  "Sex": "Male",
  "Race": "White",
  "Date of Birth": "02/19/1955 (68)",
  "Missing Age": 23,
  "Height": "5'10 - 6'2",
  "Weight": "140 - 165 pounds",
  "Latitude": 30.2711286,
  "Longitude": -97.7436995
},
{
  "_id": {
    "$oid": "6594be5ba930787fdc63171a"
  },
  "Unnamed: 1": 192,
  "Person Name": "Fermin Espino Cobos",
  "Missing Since": "03/20/2017",
  "Missing From": " Midland, Texas",
  "Classification": "Endangered Missing",
  "Sex": "Male",
  "Race": "Hispanic",
  "Date of Birth": "07/07/1942 (81)",
  "Missing Age": 74,
  "Height": "5'4",
  "Weight": "205 pounds",
  "Latitude": 31.83688,
  "Longitude": -102.0103767
},
{
  "_id": {
    "$oid": "6594be5ba930787fdc63171b"
  },
  "Unnamed: 1": 195,
  "Person Name": "Toby Ray Coleman",
  "Missing Since": "05/19/1997",
  "Missing From": " New Caney, Texas",
  "Classification": "Endangered Missing",
  "Sex": "Male",
  "Race": "White",
  "Date of Birth": "04/09/1979 (44)",
  "Missing Age": 18,
  "Height": "6'3",
  "Weight": "210 pounds",
  "Latitude": 30.155216,
  "Longitude": -95.2113221
},
{
  "_id": {
    "$oid": "6594be5ba930787fdc63171c"
  },
  "Unnamed: 1": 197,
  "Person Name": "Donnie Combs",
  "Missing Since": "09/26/2018",
  "Missing From": " Cass County, Texas",
  "Classification": "Endangered Missing",
  "Sex": "Male",
  "Race": "White",
  "Date of Birth": "02/06/1972 (51)",
  "Missing Age": 46,
  "Height": "Unknown",
  "Weight": "",
  "Latitude": 33.0560857,
  "Longitude": -94.3510366
},
{
  "_id": {
    "$oid": "6594be5ba930787fdc63171d"
  },
  "Unnamed: 1": 196,
  "Person Name": "Kathryn Elizabeth Collins",
  "Missing Since": "04/01/1981",
  "Missing From": " Port Lavaca, Texas",
  "Classification": "Endangered Missing",
  "Sex": "Female",
  "Race": "White",
  "Date of Birth": "07/17/1951 (72)",
  "Missing Age": 29,
  "Height": "5'5",
  "Weight": "125 pounds",
  "Latitude": 28.6149968,
  "Longitude": -96.6260892
},
{
  "_id": {
    "$oid": "6594be5ba930787fdc63171e"
  },
  "Unnamed: 1": 198,
  "Person Name": "Calvin Earl Conerly",
  "Missing Since": "11/09/1994",
  "Missing From": " Houston, Texas",
  "Classification": "Missing",
  "Sex": "Male",
  "Race": "Black",
  "Date of Birth": "11/15/1959 (64)",
  "Missing Age": 34,
  "Height": "5'8 - 5'11",
  "Weight": "140 - 160 pounds",
  "Latitude": 29.7589382,
  "Longitude": -95.3676974
},
{
  "_id": {
    "$oid": "6594be5ba930787fdc63171f"
  },
  "Unnamed: 1": 199,
  "Person Name": "Sheila Sue Conner",
  "Missing Since": "12/31/1991",
  "Missing From": " Houston, Texas",
  "Classification": "Endangered Missing",
  "Sex": "Female",
  "Race": "White",
  "Date of Birth": "05/27/1961 (62)",
  "Missing Age": 30,
  "Height": "5'0",
  "Weight": "130 pounds",
  "Latitude": 29.7589382,
  "Longitude": -95.3676974
},
{
  "_id": {
    "$oid": "6594be5ba930787fdc631720"
  },
  "Unnamed: 1": 201,
  "Person Name": "Rachel Louise Cooke",
  "Missing Since": "01/10/2002",
  "Missing From": " Georgetown, Texas",
  "Classification": "Endangered Missing",
  "Sex": "Female",
  "Race": "White",
  "Date of Birth": "05/10/1982 (41)",
  "Missing Age": 19,
  "Height": "5'2",
  "Weight": "110 - 120 pounds",
  "Latitude": 30.6370152,
  "Longitude": -97.6775634
},
{
  "_id": {
    "$oid": "6594be5ba930787fdc631721"
  },
  "Unnamed: 1": 202,
  "Person Name": "Sheila Cooks",
  "Missing Since": "05/17/1979",
  "Missing From": " Austin, Texas",
  "Classification": "Endangered Missing",
  "Sex": "Female",
  "Race": "Black",
  "Date of Birth": "08/14/1960 (63)",
  "Missing Age": 18,
  "Height": "5'3",
  "Weight": "95 pounds",
  "Latitude": 30.2711286,
  "Longitude": -97.7436995
},
{
  "_id": {
    "$oid": "6594be5ba930787fdc631722"
  },
  "Unnamed: 1": 204,
  "Person Name": "Willie Cooper",
  "Missing Since": "06/21/2000",
  "Missing From": " Madisonville, Texas",
  "Classification": "Endangered Missing",
  "Sex": "Male",
  "Race": "Black",
  "Date of Birth": "08/05/1925 (98)",
  "Missing Age": 74,
  "Height": "5'11",
  "Weight": "214 pounds",
  "Latitude": 30.9498688,
  "Longitude": -95.9127773
},
{
  "_id": {
    "$oid": "6594be5ba930787fdc631723"
  },
  "Unnamed: 1": 203,
  "Person Name": "Jessie James Cooper",
  "Missing Since": "06/12/1993",
  "Missing From": " Houston, Texas",
  "Classification": "Endangered Missing",
  "Sex": "Male",
  "Race": "Black",
  "Date of Birth": "11/23/1923 (100)",
  "Missing Age": 69,
  "Height": "5'11 - 6'2",
  "Weight": "170 - 190 pounds",
  "Latitude": 29.7589382,
  "Longitude": -95.3676974
},
{
  "_id": {
    "$oid": "6594be5ba930787fdc631724"
  },
  "Unnamed: 1": 205,
  "Person Name": "Loy Cosby",
  "Missing Since": "06/02/1998",
  "Missing From": " Sweetwater, Texas",
  "Classification": "Endangered Missing",
  "Sex": "Male",
  "Race": "White",
  "Date of Birth": "04/09/1911 (112)",
  "Missing Age": 87,
  "Height": "5'8 - 5'9",
  "Weight": "140 pounds",
  "Latitude": 32.4709519,
  "Longitude": -100.405938
},
{
  "_id": {
    "$oid": "6594be5ba930787fdc631725"
  },
  "Unnamed: 1": 208,
  "Person Name": "Mercy Johnson Covington",
  "Missing Since": "11/09/2015",
  "Missing From": " Dallas, Texas",
  "Classification": "Endangered Missing",
  "Sex": "Female",
  "Race": "White",
  "Date of Birth": "04/29/1974 (49)",
  "Missing Age": 41,
  "Height": "5'3 - 5'4",
  "Weight": "120 pounds",
  "Latitude": 32.7762719,
  "Longitude": -96.7968559
},
{
  "_id": {
    "$oid": "6594be5ba930787fdc631726"
  },
  "Unnamed: 1": 210,
  "Person Name": "Jerri Denise Cox",
  "Missing Since": "01/07/1998",
  "Missing From": " Orange, Texas",
  "Classification": "Endangered Missing",
  "Sex": "Female",
  "Race": "White",
  "Date of Birth": "12/10/1957 (66)",
  "Missing Age": 40,
  "Height": "5'1",
  "Weight": "95 pounds",
  "Latitude": 30.1228634,
  "Longitude": -93.9041169
},
{
  "_id": {
    "$oid": "6594be5ba930787fdc631727"
  },
  "Unnamed: 1": 211,
  "Person Name": "Melissa Gail Crabill",
  "Missing Since": "04/01/1995",
  "Missing From": " Fort Worth, Texas",
  "Classification": "Endangered Missing",
  "Sex": "Female",
  "Race": "White",
  "Date of Birth": "04/18/1964 (59)",
  "Missing Age": 30,
  "Height": "5'4",
  "Weight": "130 pounds",
  "Latitude": 32.753177,
  "Longitude": -97.3327459
},
{
  "_id": {
    "$oid": "6594be5ba930787fdc631728"
  },
  "Unnamed: 1": 212,
  "Person Name": "Brandon Douglas Crawford",
  "Missing Since": "01/15/2019",
  "Missing From": " Leander, Texas",
  "Classification": "Missing",
  "Sex": "Male",
  "Race": "White",
  "Date of Birth": "08/08/1985 (38)",
  "Missing Age": 33,
  "Height": "6'0",
  "Weight": "185 pounds",
  "Latitude": 30.5736134,
  "Longitude": -97.8567339
},
{
  "_id": {
    "$oid": "6594be5ba930787fdc631729"
  },
  "Unnamed: 1": 213,
  "Person Name": "John Richard Creech",
  "Missing Since": "06/01/2009",
  "Missing From": " Bosque County, Texas",
  "Classification": "Endangered Missing",
  "Sex": "Male",
  "Race": "White",
  "Date of Birth": "10/10/1968 (55)",
  "Missing Age": 41,
  "Height": "5'8",
  "Weight": "152 pounds",
  "Latitude": 31.8778358,
  "Longitude": -97.6561014
},
{
  "_id": {
    "$oid": "6594be5ba930787fdc63172a"
  },
  "Unnamed: 1": 215,
  "Person Name": "Gerald Ray Crossman",
  "Missing Since": "09/29/2003",
  "Missing From": " Sulphur Springs, Texas",
  "Classification": "Missing",
  "Sex": "Male",
  "Race": "White",
  "Date of Birth": "08/24/1965 (58)",
  "Missing Age": 38,
  "Height": "5'4",
  "Weight": "120 pounds",
  "Latitude": 33.1384886,
  "Longitude": -95.6010143
},
{
  "_id": {
    "$oid": "6594be5ba930787fdc63172b"
  },
  "Unnamed: 1": 214,
  "Person Name": "Debra Lynn Criqui",
  "Missing Since": "11/17/1999",
  "Missing From": " Hurst, Texas",
  "Classification": "Endangered Missing",
  "Sex": "Female",
  "Race": "White",
  "Date of Birth": "03/05/1958 (65)",
  "Missing Age": 41,
  "Height": "5'4",
  "Weight": "110 pounds",
  "Latitude": 32.8234621,
  "Longitude": -97.1705678
},
{
  "_id": {
    "$oid": "6594be5ba930787fdc63172c"
  },
  "Unnamed: 1": 209,
  "Person Name": "Shirley Dean Cowan",
  "Missing Since": "01/14/2001",
  "Missing From": " Austin, Texas",
  "Classification": "Endangered Missing",
  "Sex": "Female",
  "Race": "White",
  "Date of Birth": "10/04/1940 (83)",
  "Missing Age": 60,
  "Height": "5'2",
  "Weight": "130 pounds",
  "Latitude": 30.2711286,
  "Longitude": -97.7436995
},
{
  "_id": {
    "$oid": "6594be5ba930787fdc63172d"
  },
  "Unnamed: 1": 218,
  "Person Name": "Gloria Ann Cruz",
  "Missing Since": "09/24/1985",
  "Missing From": " Laredo, Texas",
  "Classification": "Missing",
  "Sex": "Female",
  "Race": "Hispanic",
  "Date of Birth": "06/24/1960 (63)",
  "Missing Age": 25,
  "Height": "5'4",
  "Weight": "110 pounds",
  "Latitude": 27.5030915,
  "Longitude": -99.5075644
},
{
  "_id": {
    "$oid": "6594be5ba930787fdc63172e"
  },
  "Unnamed: 1": 217,
  "Person Name": "William Clark Crumpacker",
  "Missing Since": "03/16/1998",
  "Missing From": " Lake Travis, Texas",
  "Classification": "Lost/Injured Missing",
  "Sex": "Male",
  "Race": "White",
  "Date of Birth": "04/30/1960 (63)",
  "Missing Age": 37,
  "Height": "6'3 - 6'6",
  "Weight": "225 - 235 pounds",
  "Latitude": 30.4309372,
  "Longitude": -97.94983564386266
},
{
  "_id": {
    "$oid": "6594be5ba930787fdc63172f"
  },
  "Unnamed: 1": 219,
  "Person Name": "Joe Steven Cruz",
  "Missing Since": "06/12/2016",
  "Missing From": " Dallas, Texas",
  "Classification": "Endangered Missing",
  "Sex": "Male",
  "Race": "White",
  "Date of Birth": "12/26/1956 (66)",
  "Missing Age": 59,
  "Height": "5'6",
  "Weight": "175 pounds",
  "Latitude": 32.7762719,
  "Longitude": -96.7968559
},
{
  "_id": {
    "$oid": "6594be5ba930787fdc631730"
  },
  "Unnamed: 1": 220,
  "Person Name": "Jose Javier Cruz",
  "Missing Since": "05/19/2006",
  "Missing From": " Houston, Texas",
  "Classification": "Endangered Missing",
  "Sex": "Male",
  "Race": "Hispanic",
  "Date of Birth": "10/14/1971 (52)",
  "Missing Age": 34,
  "Height": "6'1",
  "Weight": "150 pounds",
  "Latitude": 29.7589382,
  "Longitude": -95.3676974
},
{
  "_id": {
    "$oid": "6594be5ba930787fdc631731"
  },
  "Unnamed: 1": 221,
  "Person Name": "Margarette Ann Cuauhtli",
  "Missing Since": "10/11/2001",
  "Missing From": " Arlington, Texas",
  "Classification": "Endangered Missing",
  "Sex": "Female",
  "Race": "Hispanic",
  "Date of Birth": "10/25/1984 (39)",
  "Missing Age": 16,
  "Height": "5'5",
  "Weight": "135 pounds",
  "Latitude": 32.7355816,
  "Longitude": -97.1071186
},
{
  "_id": {
    "$oid": "6594be5ba930787fdc631732"
  },
  "Unnamed: 1": 223,
  "Person Name": "Jennie Samantha Cummings",
  "Missing Since": "07/11/2002",
  "Missing From": " El Paso, Texas",
  "Classification": "Endangered Missing",
  "Sex": "Female",
  "Race": "White",
  "Date of Birth": "11/30/1976 (47)",
  "Missing Age": 25,
  "Height": "5'3",
  "Weight": "130 pounds",
  "Latitude": 31.7550511,
  "Longitude": -106.488234
},
{
  "_id": {
    "$oid": "6594be5ba930787fdc631733"
  },
  "Unnamed: 1": 222,
  "Person Name": "Larry Jones Culberson Jr.",
  "Missing Since": "09/03/2013",
  "Missing From": " Emory, Texas",
  "Classification": "Endangered Missing",
  "Sex": "Male",
  "Race": "White",
  "Date of Birth": "06/10/1955 (68)",
  "Missing Age": 58,
  "Height": "6'4",
  "Weight": "185 - 195 pounds",
  "Latitude": 32.874566,
  "Longitude": -95.7655183
},
{
  "_id": {
    "$oid": "6594be5ba930787fdc631734"
  },
  "Unnamed: 1": 224,
  "Person Name": "Joseph Wayne Daggett",
  "Missing Since": "03/01/1988",
  "Missing From": " Pecos, Texas",
  "Classification": "Endangered Missing",
  "Sex": "Male",
  "Race": "White",
  "Date of Birth": "09/18/1960 (63)",
  "Missing Age": 27,
  "Height": "5'10",
  "Weight": "185 pounds",
  "Latitude": 30.7857437,
  "Longitude": -102.8065415
},
{
  "_id": {
    "$oid": "6594be5ba930787fdc631735"
  },
  "Unnamed: 1": 228,
  "Person Name": "Richard Travis Davidson",
  "Missing Since": "07/17/2021",
  "Missing From": " College Station, Texas",
  "Classification": "Missing",
  "Sex": "Male",
  "Race": "Native American",
  "Date of Birth": "05/11/1967 (56)",
  "Missing Age": 54,
  "Height": "6'0",
  "Weight": "215 - 230 pounds",
  "Latitude": 30.6183939,
  "Longitude": -96.3455991
},
{
  "_id": {
    "$oid": "6594be5ba930787fdc631736"
  },
  "Unnamed: 1": 229,
  "Person Name": "Courtney Nichole Davila",
  "Missing Since": "10/16/2003",
  "Missing From": " Dallas, Texas",
  "Classification": "Endangered Missing",
  "Sex": "Female",
  "Race": "White",
  "Date of Birth": "03/09/1977 (46)",
  "Missing Age": 26,
  "Height": "5'4",
  "Weight": "160 pounds",
  "Latitude": 32.7762719,
  "Longitude": -96.7968559
},
{
  "_id": {
    "$oid": "6594be5ba930787fdc631737"
  },
  "Unnamed: 1": 216,
  "Person Name": "Amber Nicole Crum",
  "Missing Since": "12/26/1983",
  "Missing From": " Dallas, Texas",
  "Classification": "Non-Family Abduction",
  "Sex": "Female",
  "Race": "White",
  "Date of Birth": "09/25/1981 (42)",
  "Missing Age": 2,
  "Height": "2'4",
  "Weight": "25 pounds",
  "Latitude": 32.7762719,
  "Longitude": -96.7968559
},
{
  "_id": {
    "$oid": "6594be5ba930787fdc631738"
  },
  "Unnamed: 1": 230,
  "Person Name": "Crespin Olivares Davis",
  "Missing Since": "03/06/2005",
  "Missing From": " Lubbock, Texas",
  "Classification": "Missing",
  "Sex": "Male",
  "Race": "Hispanic",
  "Date of Birth": "11/26/1951 (72)",
  "Missing Age": 53,
  "Height": "5'10",
  "Weight": "155 pounds",
  "Latitude": 33.5855677,
  "Longitude": -101.8470215
},
{
  "_id": {
    "$oid": "6594be5ba930787fdc631739"
  },
  "Unnamed: 1": 231,
  "Person Name": "James Preston Davis",
  "Missing Since": "03/03/2006",
  "Missing From": " San Antonio, Texas",
  "Classification": "Endangered Missing",
  "Sex": "Male",
  "Race": "Black",
  "Date of Birth": "02/09/1969 (54)",
  "Missing Age": 37,
  "Height": "5'7",
  "Weight": "160 - 170 pounds",
  "Latitude": 29.4246002,
  "Longitude": -98.4951405
},
{
  "_id": {
    "$oid": "6594be5ba930787fdc63173a"
  },
  "Unnamed: 1": 232,
  "Person Name": "Jayne Elizabeth Winship Davis",
  "Missing Since": "04/30/1993",
  "Missing From": " Houston, Texas",
  "Classification": "Endangered Missing",
  "Sex": "Female",
  "Race": "White",
  "Date of Birth": "07/26/1968 (55)",
  "Missing Age": 24,
  "Height": "5'6",
  "Weight": "130 pounds",
  "Latitude": 29.7589382,
  "Longitude": -95.3676974
},
{
  "_id": {
    "$oid": "6594be5ba930787fdc63173b"
  },
  "Unnamed: 1": 233,
  "Person Name": "Joshua Jayvaughn Davis Jr.",
  "Missing Since": "02/04/2011",
  "Missing From": " New Braunfels, Texas",
  "Classification": "Endangered Missing",
  "Sex": "Male",
  "Race": "Black",
  "Date of Birth": "08/16/2009 (14)",
  "Missing Age": 1,
  "Height": "2'0",
  "Weight": "30 pounds",
  "Latitude": 29.7028266,
  "Longitude": -98.1257348
},
{
  "_id": {
    "$oid": "6594be5ba930787fdc63173c"
  },
  "Unnamed: 1": 234,
  "Person Name": "Larry Donnell Davis",
  "Missing Since": "10/15/1998",
  "Missing From": " Houston, Texas",
  "Classification": "Missing",
  "Sex": "Male",
  "Race": "Black",
  "Date of Birth": "02/07/1977 (46)",
  "Missing Age": 21,
  "Height": "5'8",
  "Weight": "160 pounds",
  "Latitude": 29.7589382,
  "Longitude": -95.3676974
},
{
  "_id": {
    "$oid": "6594be5ba930787fdc63173d"
  },
  "Unnamed: 1": 236,
  "Person Name": "Sharon Eugenia Davis",
  "Missing Since": "06/13/2001",
  "Missing From": " Dallas, Texas",
  "Classification": "Endangered Missing",
  "Sex": "Female",
  "Race": "Black",
  "Date of Birth": "03/17/1950 (73)",
  "Missing Age": 51,
  "Height": "5'2",
  "Weight": "118 - 130 pounds",
  "Latitude": 32.7762719,
  "Longitude": -96.7968559
},
{
  "_id": {
    "$oid": "6594be5ba930787fdc63173e"
  },
  "Unnamed: 1": 238,
  "Person Name": "George Alfred Davisworth III",
  "Missing Since": "10/25/1985",
  "Missing From": " Houston, Texas",
  "Classification": "Endangered Missing",
  "Sex": "Male",
  "Race": "White",
  "Date of Birth": "07/04/1944 (79)",
  "Missing Age": 41,
  "Height": "6'2 - 6'5",
  "Weight": "165 - 175 pounds",
  "Latitude": 29.7589382,
  "Longitude": -95.3676974
},
{
  "_id": {
    "$oid": "6594be5ba930787fdc63173f"
  },
  "Unnamed: 1": 235,
  "Person Name": "Mark Randall Davis",
  "Missing Since": "01/15/2007",
  "Missing From": " Tyler, Texas",
  "Classification": "Endangered Missing",
  "Sex": "Male",
  "Race": "White",
  "Date of Birth": "04/14/1986 (37)",
  "Missing Age": 20,
  "Height": "5'8",
  "Weight": "155 pounds",
  "Latitude": 30.7563939,
  "Longitude": -94.3984613
},
{
  "_id": {
    "$oid": "6594be5ba930787fdc631740"
  },
  "Unnamed: 1": 241,
  "Person Name": "Ameera Deadrick",
  "Missing Since": "06/01/2016",
  "Missing From": " Houston, Texas",
  "Classification": "Endangered Missing",
  "Sex": "Female",
  "Race": "Black",
  "Date of Birth": "10/01/2008 (15)",
  "Missing Age": 7,
  "Height": "4'3",
  "Weight": "50 pounds",
  "Latitude": 29.7589382,
  "Longitude": -95.3676974
},
{
  "_id": {
    "$oid": "6594be5ba930787fdc631741"
  },
  "Unnamed: 1": 243,
  "Person Name": "Steven Wayne Dean",
  "Missing Since": "09/15/2019",
  "Missing From": " Dayton, Texas",
  "Classification": "Endangered Missing",
  "Sex": "Male",
  "Race": "White",
  "Date of Birth": "03/25/1985 (38)",
  "Missing Age": 34,
  "Height": "5'10",
  "Weight": "160 pounds",
  "Latitude": 30.0473202,
  "Longitude": -94.8873913
},
{
  "_id": {
    "$oid": "6594be5ba930787fdc631742"
  },
  "Unnamed: 1": 246,
  "Person Name": "Paulino Norberto Del Mundo Japor Jr.",
  "Missing Since": "09/15/2019",
  "Missing From": " Dallas, Texas",
  "Classification": "Endangered Missing",
  "Sex": "Male",
  "Race": "Asian",
  "Date of Birth": "06/06/1960 (63)",
  "Missing Age": 59,
  "Height": "5'6",
  "Weight": "130 pounds",
  "Latitude": 32.7762719,
  "Longitude": -96.7968559
},
{
  "_id": {
    "$oid": "6594be5ba930787fdc631743"
  },
  "Unnamed: 1": 247,
  "Person Name": "Jessica Delgadillo",
  "Missing Since": "10/20/2010",
  "Missing From": " Amarillo, Texas",
  "Classification": "Endangered Missing",
  "Sex": "Female",
  "Race": "Hispanic",
  "Date of Birth": "02/08/1996 (27)",
  "Missing Age": 14,
  "Height": "5'6",
  "Weight": "200 pounds",
  "Latitude": 35.2072185,
  "Longitude": -101.833824
},
{
  "_id": {
    "$oid": "6594be5ba930787fdc631744"
  },
  "Unnamed: 1": 245,
  "Person Name": "Calvin Ray Deets",
  "Missing Since": "04/12/1985",
  "Missing From": " Bonham, Texas",
  "Classification": "Endangered Missing",
  "Sex": "Male",
  "Race": "White",
  "Date of Birth": "03/03/1953 (70)",
  "Missing Age": 32,
  "Height": "6'0",
  "Weight": "160 pounds",
  "Latitude": 33.5822077,
  "Longitude": -96.1785028
},
{
  "_id": {
    "$oid": "6594be5ba930787fdc631745"
  },
  "Unnamed: 1": 251,
  "Person Name": "Caleb Ray Diehl",
  "Missing Since": "03/30/2015",
  "Missing From": " Nocona, Texas",
  "Classification": "Endangered Missing",
  "Sex": "Male",
  "Race": "White",
  "Date of Birth": "03/15/1997 (26)",
  "Missing Age": 18,
  "Height": "5'11 - 6'2",
  "Weight": "145 pounds",
  "Latitude": 33.7888548,
  "Longitude": -97.7267383
},
{
  "_id": {
    "$oid": "6594be5ba930787fdc631746"
  },
  "Unnamed: 1": 248,
  "Person Name": "Issac David Delgado",
  "Missing Since": "08/28/2006",
  "Missing From": " Laredo, Texas",
  "Classification": "Endangered Runaway",
  "Sex": "Male",
  "Race": "Hispanic",
  "Date of Birth": "10/14/1990 (33)",
  "Missing Age": 15,
  "Height": "5'8",
  "Weight": "121 pounds",
  "Latitude": 27.5030915,
  "Longitude": -99.5075644
},
{
  "_id": {
    "$oid": "6594be5ba930787fdc631747"
  },
  "Unnamed: 1": 253,
  "Person Name": "Anna T. Dimmitt",
  "Missing Since": "05/11/1984",
  "Missing From": " Fort Worth, Texas",
  "Classification": "Endangered Missing",
  "Sex": "Female",
  "Race": "White",
  "Date of Birth": "11/04/1945 (78)",
  "Missing Age": 38,
  "Height": "5'5",
  "Weight": "150 pounds",
  "Latitude": 32.753177,
  "Longitude": -97.3327459
},
{
  "_id": {
    "$oid": "6594be5ba930787fdc631748"
  },
  "Unnamed: 1": 254,
  "Person Name": "Jewel Arnette Dixon",
  "Missing Since": "09/28/2006",
  "Missing From": " Sherman, Texas",
  "Classification": "Endangered Missing",
  "Sex": "Female",
  "Race": "White",
  "Date of Birth": "11/05/1955 (68)",
  "Missing Age": 50,
  "Height": "5'6",
  "Weight": "140 pounds",
  "Latitude": 36.2452294,
  "Longitude": -101.8858689
},
{
  "_id": {
    "$oid": "6594be5ba930787fdc631749"
  },
  "Unnamed: 1": 244,
  "Person Name": "Annette Marie DeBlasio",
  "Missing Since": "01/01/2005",
  "Missing From": " Austin, Texas",
  "Classification": "Missing",
  "Sex": "Female",
  "Race": "White",
  "Date of Birth": "10/09/1966 (57)",
  "Missing Age": 38,
  "Height": "5'3",
  "Weight": "135 pounds",
  "Latitude": 30.2711286,
  "Longitude": -97.7436995
},
{
  "_id": {
    "$oid": "6594be5ba930787fdc63174a"
  },
  "Unnamed: 1": 256,
  "Person Name": "Brittani Nicole Dolbear",
  "Missing Since": "11/01/1998",
  "Missing From": " Angleton, Texas",
  "Classification": "Family Abduction",
  "Sex": "Female",
  "Race": "White",
  "Date of Birth": "11/14/1994 (29)",
  "Missing Age": 3,
  "Height": "3'7",
  "Weight": "52 pounds",
  "Latitude": 29.16941,
  "Longitude": -95.4318847
},
{
  "_id": {
    "$oid": "6594be5ba930787fdc63174b"
  },
  "Unnamed: 1": 255,
  "Person Name": "Jimmy Charles Dixon",
  "Missing Since": "06/22/1997",
  "Missing From": " Marshall, Texas",
  "Classification": "Endangered Missing",
  "Sex": "Male",
  "Race": "Black",
  "Date of Birth": "03/21/1950 (73)",
  "Missing Age": 47,
  "Height": "6'5",
  "Weight": "163 pounds",
  "Latitude": 32.5447756,
  "Longitude": -94.3661004
},
{
  "_id": {
    "$oid": "6594be5ba930787fdc63174c"
  },
  "Unnamed: 1": 250,
  "Person Name": "Pauline Cantu Diaz",
  "Missing Since": "12/07/2010",
  "Missing From": " San Antonio, Texas",
  "Classification": "Endangered Missing",
  "Sex": "Female",
  "Race": "White",
  "Date of Birth": "07/24/1946 (77)",
  "Missing Age": 64,
  "Height": "4'11",
  "Weight": "135 pounds",
  "Latitude": 29.4246002,
  "Longitude": -98.4951405
},
{
  "_id": {
    "$oid": "6594be5ba930787fdc63174d"
  },
  "Unnamed: 1": 257,
  "Person Name": "Mary Alice Domebo",
  "Missing Since": "01/01/1985",
  "Missing From": " Fort Worth, Texas",
  "Classification": "Missing",
  "Sex": "Female",
  "Race": "Native American",
  "Date of Birth": "08/24/1947 (76)",
  "Missing Age": 37,
  "Height": "5'6",
  "Weight": "130 pounds",
  "Latitude": 32.753177,
  "Longitude": -97.3327459
},
{
  "_id": {
    "$oid": "6594be5ba930787fdc63174e"
  },
  "Unnamed: 1": 258,
  "Person Name": "Jesus Dominguez",
  "Missing Since": "03/20/2008",
  "Missing From": " Golden Acres, Texas",
  "Classification": "Family Abduction",
  "Sex": "Male",
  "Race": "Hispanic",
  "Date of Birth": "11/20/2006 (17)",
  "Missing Age": 1,
  "Height": "3'0",
  "Weight": "40 pounds",
  "Latitude": 29.6707849,
  "Longitude": -95.1529879
},
{
  "_id": {
    "$oid": "6594be5ba930787fdc63174f"
  },
  "Unnamed: 1": 260,
  "Person Name": "Gary Wayne Dover",
  "Missing Since": "08/29/1981",
  "Missing From": " Denton, Texas",
  "Classification": "Endangered Missing",
  "Sex": "Male",
  "Race": "White",
  "Date of Birth": "01/10/1950 (73)",
  "Missing Age": 31,
  "Height": "5'10 - 5'11",
  "Weight": "140 pounds",
  "Latitude": 33.1838787,
  "Longitude": -97.1413417
},
{
  "_id": {
    "$oid": "6594be5ba930787fdc631750"
  },
  "Unnamed: 1": 240,
  "Person Name": "Rodrigo Jorge De La Garza Jr.",
  "Missing Since": "01/16/2017",
  "Missing From": " Houston, Texas",
  "Classification": "Missing",
  "Sex": "Male",
  "Race": "Hispanic",
  "Date of Birth": "09/05/1988 (35)",
  "Missing Age": 28,
  "Height": "5'8 - 5'10",
  "Weight": "220 - 270 pounds",
  "Latitude": 29.7589382,
  "Longitude": -95.3676974
},
{
  "_id": {
    "$oid": "6594be5ba930787fdc631751"
  },
  "Unnamed: 1": 262,
  "Person Name": "David Adrian Downes",
  "Missing Since": "01/04/2006",
  "Missing From": " Amarillo, Texas",
  "Classification": "Endangered Missing",
  "Sex": "Male",
  "Race": "White",
  "Date of Birth": "12/31/1961 (61)",
  "Missing Age": 44,
  "Height": "5'11",
  "Weight": "150 pounds",
  "Latitude": 35.2072185,
  "Longitude": -101.833824
},
{
  "_id": {
    "$oid": "6594be5ba930787fdc631752"
  },
  "Unnamed: 1": 261,
  "Person Name": "Alan Rhys Dowden",
  "Missing Since": "10/26/2003",
  "Missing From": " Camilla, Texas",
  "Classification": "Missing",
  "Sex": "Male",
  "Race": "White",
  "Date of Birth": "07/06/1974 (49)",
  "Missing Age": 29,
  "Height": "5'8 - 5'10",
  "Weight": "160 - 175 pounds",
  "Latitude": 30.5996432,
  "Longitude": -95.0579915
},
{
  "_id": {
    "$oid": "6594be5ba930787fdc631753"
  },
  "Unnamed: 1": 263,
  "Person Name": "Lloyd Edward Downey",
  "Missing Since": "11/19/1992",
  "Missing From": " San Antonio, Texas",
  "Classification": "Endangered Missing",
  "Sex": "Male",
  "Race": "Black",
  "Date of Birth": "12/14/1935 (88)",
  "Missing Age": 56,
  "Height": "5'8",
  "Weight": "195 pounds",
  "Latitude": 29.4246002,
  "Longitude": -98.4951405
},
{
  "_id": {
    "$oid": "6594be5ba930787fdc631754"
  },
  "Unnamed: 1": 252,
  "Person Name": "David Harold Dilloway",
  "Missing Since": "04/28/2001",
  "Missing From": " Austin, Texas",
  "Classification": "Endangered Missing",
  "Sex": "Male",
  "Race": "White",
  "Date of Birth": "10/21/1976 (47)",
  "Missing Age": 24,
  "Height": "6'1",
  "Weight": "185 pounds",
  "Latitude": 30.2711286,
  "Longitude": -97.7436995
},
{
  "_id": {
    "$oid": "6594be5ba930787fdc631755"
  },
  "Unnamed: 1": 249,
  "Person Name": "Caitlin Marie Denison",
  "Missing Since": "01/10/2018",
  "Missing From": " Midland, Texas",
  "Classification": "Endangered Missing",
  "Sex": "Female",
  "Race": "White",
  "Date of Birth": "08/07/1998 (25)",
  "Missing Age": 19,
  "Height": "5'5",
  "Weight": "120 pounds",
  "Latitude": 31.83688,
  "Longitude": -102.0103767
},
{
  "_id": {
    "$oid": "6594be5ba930787fdc631756"
  },
  "Unnamed: 1": 264,
  "Person Name": "Jeannette Gesela Drzewiecki",
  "Missing Since": "09/13/1982",
  "Missing From": " Odessa, Texas",
  "Classification": "Endangered Missing",
  "Sex": "Female",
  "Race": "White",
  "Date of Birth": "07/06/1963 (60)",
  "Missing Age": 19,
  "Height": "5'8",
  "Weight": "125 pounds",
  "Latitude": 31.8457149,
  "Longitude": -102.367687
},
{
  "_id": {
    "$oid": "6594be5ba930787fdc631757"
  },
  "Unnamed: 1": 266,
  "Person Name": "Hartford Hunter Dunn",
  "Missing Since": "08/05/2004",
  "Missing From": " Marshall, Texas",
  "Classification": "Endangered Missing",
  "Sex": "Male",
  "Race": "Black",
  "Date of Birth": "09/03/1927 (96)",
  "Missing Age": 76,
  "Height": "5'7",
  "Weight": "189 pounds",
  "Latitude": 32.5447756,
  "Longitude": -94.3661004
},
{
  "_id": {
    "$oid": "6594be5ba930787fdc631758"
  },
  "Unnamed: 1": 237,
  "Person Name": "Pinkie Mae Davis-Herron",
  "Missing Since": "09/01/1976",
  "Missing From": " Del Valle, Texas",
  "Classification": "Missing",
  "Sex": "Female",
  "Race": " Biracial, Black, Hispanic",
  "Date of Birth": "01/31/1956 (67)",
  "Missing Age": 20,
  "Height": "5'3",
  "Weight": "120 - 130 pounds",
  "Latitude": 3.3254169,
  "Longitude": -76.2351756
},
{
  "_id": {
    "$oid": "6594be5ba930787fdc631759"
  },
  "Unnamed: 1": 270,
  "Person Name": "Kenny Dwayne Ebarb",
  "Missing Since": "07/15/2005",
  "Missing From": " Humble, Texas",
  "Classification": "Endangered Missing",
  "Sex": "Male",
  "Race": "White",
  "Date of Birth": "07/17/1977 (46)",
  "Missing Age": 27,
  "Height": "5'9",
  "Weight": "140 pounds",
  "Latitude": 29.9988312,
  "Longitude": -95.2621553
},
{
  "_id": {
    "$oid": "6594be5ba930787fdc63175a"
  },
  "Unnamed: 1": 267,
  "Person Name": "Martha Wes Dunn",
  "Missing Since": "09/05/1990",
  "Missing From": " Daingerfield, Texas",
  "Classification": "Endangered Runaway",
  "Sex": "Female",
  "Race": "White",
  "Date of Birth": "06/22/1975 (48)",
  "Missing Age": 15,
  "Height": "5'4",
  "Weight": "95 pounds",
  "Latitude": 33.0318031,
  "Longitude": -94.7219895
},
{
  "_id": {
    "$oid": "6594be5ba930787fdc63175b"
  },
  "Unnamed: 1": 268,
  "Person Name": "Heather Marie Dupriest",
  "Missing Since": "03/28/2007",
  "Missing From": " San Antonio, Texas",
  "Classification": "Endangered Missing",
  "Sex": "Female",
  "Race": "White",
  "Date of Birth": "08/23/1984 (39)",
  "Missing Age": 22,
  "Height": "5'3",
  "Weight": "145 pounds",
  "Latitude": 29.4246002,
  "Longitude": -98.4951405
},
{
  "_id": {
    "$oid": "6594be5ba930787fdc63175c"
  },
  "Unnamed: 1": 269,
  "Person Name": "William Issac Eastep",
  "Missing Since": "02/15/2003",
  "Missing From": " Texas City, Texas",
  "Classification": "Missing",
  "Sex": "Male",
  "Race": "White",
  "Date of Birth": "03/06/1948 (75)",
  "Missing Age": 54,
  "Height": "5'10",
  "Weight": "158 pounds",
  "Latitude": 29.396013,
  "Longitude": -94.9175485
},
{
  "_id": {
    "$oid": "6594be5ba930787fdc63175d"
  },